[
 {
   "Name": "CrossFit Beloit",
   "Address": "302 State Street Beloit US 53511 ",
   "Latitude": 42.4989024,
   "Longitude": -89.0363054,
   "Website": "http://CrossfitBeloit.com"
 },
 {
   "Name": "CrossFit MIA",
   "Address": "8764 SW 131st Street Miami US 33176 ",
   "Latitude": 25.6451685,
   "Longitude": -80.4073729,
   "Website": "http://www.crossfitmia.com/"
 },
 {
   "Name": "CrossFit Synapse",
   "Address": "18750 Oxnard St. #402 Tarzana US 91356 ",
   "Latitude": 34.1799856,
   "Longitude": -118.5426018,
   "Website": "http://www.crossfitsynapse.com"
 },
 {
   "Name": "CrossFit Kyoto",
   "Address": "56 Koyamakitaono-cho, Kita-ku Kyoto-shi JP 603-8161 ",
   "Latitude": 35.0431197,
   "Longitude": 135.7548254,
   "Website": "http://www.crossfitkyoto.com/"
 },
 {
   "Name": "CrossFit Kenmore",
   "Address": "7524 NE 175th St. Kenmore US 98028 ",
   "Latitude": 47.7563259,
   "Longitude": -122.2398856,
   "Website": "https://www.crossfitkenmore.com/"
 },
 {
   "Name": "CrossFit 403",
   "Address": "507- 43 East Lake Crescent Airdrie CA T4A 2H5 ",
   "Latitude": 51.2926219,
   "Longitude": -113.993541,
   "Website": "http://www.crossfit403.com/Home.html"
 },
 {
   "Name": "South Sound CrossFit",
   "Address": "7315 385 St E Eatonville US 98328 ",
   "Latitude": 46.909339,
   "Longitude": -122.333062,
   "Website": "http://www.southsoundcrossfit.com/"
 },
 {
   "Name": "In2 CrossFit Farnham",
   "Address": "Unit 3, 1-3 East Street Farnham GB GU9 7SX ",
   "Latitude": 51.2185432,
   "Longitude": -0.7894135,
   "Website": "https://in2training.fit/programs"
 },
 {
   "Name": "CrossFit Committed",
   "Address": "Konevova 136 Prague 3 CZ 130 00 ",
   "Latitude": 50.0908818,
   "Longitude": 14.471748,
   "Website": "http://crossfitcommitted.com/"
 },
 {
   "Name": "CrossFit Signal Hill",
   "Address": "3262 E. Willow St. Signal Hill US 90755 ",
   "Latitude": 33.8042094,
   "Longitude": -118.1537963,
   "Website": "http://cfsignalhill.com/"
 },
 {
   "Name": "CrossFit Resurgence",
   "Address": "24137 111th St. Unit G Naperville US 60564 ",
   "Latitude": 41.6783706,
   "Longitude": -88.2090206,
   "Website": "http://www.crossfitresurgence.com/"
 },
 {
   "Name": "CrossFit 1 Force",
   "Address": "1501 Grandview Ave. Ste. G West Deptford US 8096 ",
   "Latitude": 39.8227054,
   "Longitude": -75.1195107,
   "Website": "http://crossfit1force.com/"
 },
 {
   "Name": "CrossFit Victus",
   "Address": "Unit 3, 17-25 Lake Albert Rd. Wagga Wagga AU 2650 ",
   "Latitude": -35.1233779,
   "Longitude": 147.3791431,
   "Website": "http://www.crossfitvictus.com/"
 },
 {
   "Name": "CrossFit BA",
   "Address": "2402 W New Orleans St Broken Arrow US 74012 ",
   "Latitude": 36.0181338,
   "Longitude": -95.8165498,
   "Website": "http://www.crossfitba.com"
 },
 {
   "Name": "CrossFit Passaic Valley",
   "Address": "11 Rosengren Avenue Totowa US 7512 ",
   "Latitude": 40.903499,
   "Longitude": -74.2139679,
   "Website": "http://www.crossfitpassaicvalley.com/"
 },
 {
   "Name": "Parkside CrossFit",
   "Address": "7300 Fulton Ave., Unit C North Hollywood US 91605 ",
   "Latitude": 34.2030313,
   "Longitude": -118.422015,
   "Website": "http://parksidecrossfit.com/"
 },
 {
   "Name": "CrossFit Natural State",
   "Address": "3104 Prosperity Drive Jonesboro US 72404 ",
   "Latitude": 35.8061604,
   "Longitude": -90.6724004,
   "Website": "http://www.crossfit-naturalstate.com"
 },
 {
   "Name": "Village CrossFit",
   "Address": "3707 Las Palmas Dr Houston US 77027 ",
   "Latitude": 29.7321261,
   "Longitude": -95.4438555,
   "Website": "http://www.villagecrossfit.com"
 },
 {
   "Name": "CrossFit Rampage",
   "Address": "1402 West College Street Murfreesboro US 37129 ",
   "Latitude": 35.8640181,
   "Longitude": -86.4145948,
   "Website": "http://crossfitrampage.com/"
 },
 {
   "Name": "CrossFit Evolving",
   "Address": "Archway 3, 303 Holloway Road London GB N7 8HS ",
   "Latitude": 51.5529181,
   "Longitude": -0.1129119,
   "Website": "http://www.crossfitevolving.com"
 },
 {
   "Name": "CrossFit Carina",
   "Address": "820 Old Cleveland Rd. Carina Brisbane AU 4152 ",
   "Latitude": -27.4954296,
   "Longitude": 153.0878464,
   "Website": "https://www.crossfitcarina.com/"
 },
 {
   "Name": "CrossFit Gangnam",
   "Address": "B1 Fl. 19-2, Nonhyeon 1-dong Gangnam-gu KR  ",
   "Latitude": 37.5158277,
   "Longitude": 127.020128,
   "Website": "http://www.crossfitgn.com"
 },
 {
   "Name": "CrossFit Red Bluff",
   "Address": "2 Arnold Street Cheltenham AU 3192 ",
   "Latitude": -37.9581444,
   "Longitude": 145.0392175,
   "Website": "http://crossfitredbluff.com.au/"
 },
 {
   "Name": "CrossFit Mona Vale",
   "Address": "14 Tengah Crescent Mona Vale AU 2103 ",
   "Latitude": -33.6734266,
   "Longitude": 151.3076484,
   "Website": "https://themonagym.com/"
 },
 {
   "Name": "CrossFit Skopje",
   "Address": "ul. Viktor Igo br.10/20 Skopje MK 1000 ",
   "Latitude": 41.9855126,
   "Longitude": 21.4342262,
   "Website": "http://www.crossfitskopje.com/"
 },
 {
   "Name": "CrossFit Riviera",
   "Address": "Route du Verney 18-20 Puidoux CH 1070 ",
   "Latitude": 46.4917134,
   "Longitude": 6.7643786,
   "Website": "http://www.crossfitriviera.ch/"
 },
 {
   "Name": "CrossFit 626",
   "Address": "2456 Huntington Drive San Marino US 91108 ",
   "Latitude": 34.123074,
   "Longitude": -118.1017291,
   "Website": "http://www.crossfit626.com"
 },
 {
   "Name": "CrossFit Armoury",
   "Address": "17309 105 Ave Edmonton CA T5S 1H2 ",
   "Latitude": 53.5482904,
   "Longitude": -113.6195429,
   "Website": "http://crossfitarmoury.com/"
 },
 {
   "Name": "CrossFit Eminence",
   "Address": "848 78th Ave Thornton US 80229 ",
   "Latitude": 39.8377089,
   "Longitude": -104.9759459,
   "Website": "http://www.crossfiteminence.com/"
 },
 {
   "Name": "CrossFit Bridgewater",
   "Address": "620 Bedford Street Bridgewater US 2324 ",
   "Latitude": 41.9717766,
   "Longitude": -70.9731624,
   "Website": "https://crossfitbridgewater.com/"
 },
 {
   "Name": "CrossFit Lubbock",
   "Address": "12201 Geneva Ave Lubbock US 79423 ",
   "Latitude": 33.4832177,
   "Longitude": -101.8844137,
   "Website": "https://www.cflbk.com/"
 },
 {
   "Name": "CrossFit Fareham",
   "Address": "Kiln Acre Business Centre, Wickham Road Fareham GB PO16 7JS ",
   "Latitude": 50.8607468,
   "Longitude": -1.1793214,
   "Website": "http://www.nmaperformance.co.uk/?page_id=1634"
 },
 {
   "Name": "CrossFit Lloydminster",
   "Address": "5408 51 Street Lloydminster CA T9V 3M9 ",
   "Latitude": 53.284544,
   "Longitude": -110.0166384,
   "Website": "https://www.crossfitlloydminster.com/"
 },
 {
   "Name": "CrossFit Nashville",
   "Address": "3628 Trousdale, #C-F Nashville US 37211 ",
   "Latitude": 36.0959704,
   "Longitude": -86.7490554,
   "Website": "http://www.crossfitnashville.com/"
 },
 {
   "Name": "CrossFit CM2",
   "Address": "7 Russell Way Chelmsford GB CM1 3AA ",
   "Latitude": 51.7217403,
   "Longitude": 0.4479315,
   "Website": "http://www.crossfitcm2.com"
 },
 {
   "Name": "CrossFit Paramount",
   "Address": "22402 44th Ave W., Suite A Mountlake Terrace US 98043 ",
   "Latitude": 47.7957586,
   "Longitude": -122.2930855,
   "Website": "http://www.paramountsc.com/"
 },
 {
   "Name": "Bexar Box CrossFit",
   "Address": "7121 US 90, Suite 104 San Antonio US 78227 ",
   "Latitude": 29.4047965,
   "Longitude": -98.6312628,
   "Website": "http://www.crossfitlackland.com/"
 },
 {
   "Name": "CrossFit Oddity",
   "Address": "102 Research Blvd Madison US 35758 ",
   "Latitude": 34.68866,
   "Longitude": -86.727289,
   "Website": "http://cfnomad.com/"
 },
 {
   "Name": "CrossFit North Scottsdale",
   "Address": "9525 E. Doubletree Ranch Rd Suite 103 Scottsdale US 85258 ",
   "Latitude": 33.5683311,
   "Longitude": -111.8757019,
   "Website": "http://www.cfnsaz.com"
 },
 {
   "Name": "CrossFit Del Mar",
   "Address": "10447 Roselle Street, Suite 1 San Diego US 92121 ",
   "Latitude": 32.8948523,
   "Longitude": -117.2183847,
   "Website": "http://www.crossfitdelmar.com/"
 },
 {
   "Name": "CrossFit Abu Dhabi",
   "Address": "Building C, Al Zeina Complex Al Zeina AE  ",
   "Latitude": 24.4563821,
   "Longitude": 54.6129226,
   "Website": "http://www.crossfitabudhabi.com/"
 },
 {
   "Name": "Badger CrossFit",
   "Address": "1169 N 62nd St Wauwatosa US 53213 ",
   "Latitude": 43.0458506,
   "Longitude": -87.9906636,
   "Website": "http://www.badgercrossfit.com"
 },
 {
   "Name": "CrossFit Western Front",
   "Address": "9 The Terrace North Ipswich AU 4305 ",
   "Latitude": -27.6079124,
   "Longitude": 152.7610947,
   "Website": "https://crossfitwesternfront.com.au/"
 },
 {
   "Name": "CrossFit Orangeville",
   "Address": "207323 ON-9 Mono CA L9W6J2 ",
   "Latitude": 43.9323825,
   "Longitude": -80.0444546,
   "Website": "https://www.crossfitorangeville.ca/"
 },
 {
   "Name": "CrossFit Kristiansand",
   "Address": "Nye Tegleverks Vei 5 Kristiansand NO 4632 ",
   "Latitude": 58.151419,
   "Longitude": 8.0253239,
   "Website": "http://www.crossfitkristiansand.no/"
 },
 {
   "Name": "CrossFit Anywhere",
   "Address": "7700 Folsom Auburn Road Folsom US 95630 ",
   "Latitude": 38.7067816,
   "Longitude": -121.1702783,
   "Website": "http://www.crossfitanywhere.com/"
 },
 {
   "Name": "CrossFit Rhein-Neckar",
   "Address": "Industriestraße 39 Mannheim DE 68169 ",
   "Latitude": 49.5127341,
   "Longitude": 8.4693637,
   "Website": "http://www.crossfit-rhein-neckar.de/"
 },
 {
   "Name": "Crooked River CrossFit CTown",
   "Address": "1678 Leonard Street Cleveland US 44113 ",
   "Latitude": 41.491939,
   "Longitude": -81.700506,
   "Website": "https://trainctown.com/crossfit/?utm_source=crossfit-affiliate&utm_campaign=cleveland"
 },
 {
   "Name": "CrossFit 34",
   "Address": "Kutup Sk. 10 Istanbul TR 34775 ",
   "Latitude": 41.0018126,
   "Longitude": 29.149831,
   "Website": "http://www.crossfit34.com/"
 },
 {
   "Name": "CrossFit Abbotsford",
   "Address": "#120 34077 Gladys Ave. Abbotsford CA V2S 2E8 ",
   "Latitude": 49.0445326,
   "Longitude": -122.2807135,
   "Website": "http://crossfitabbotsford.com/"
 },
 {
   "Name": "CrossFit Campinas",
   "Address": "Avenida Barão de Itapura, 2900 Campinas BR 13076-629 ",
   "Latitude": -22.8815725,
   "Longitude": -47.0553561,
   "Website": "http://www.crossfitcampinas.com.br/"
 },
 {
   "Name": "CrossFit Strongtown",
   "Address": "1432 Old Waterbury Rd. Southbury US 6488 ",
   "Latitude": 41.4930604,
   "Longitude": -73.166998,
   "Website": "http://www.crossfitstrongtown.com"
 },
 {
   "Name": "CrossFit Phoenixville",
   "Address": "1041 W. Bridge Street, Suite 102 Phoenixville US 19460 ",
   "Latitude": 40.1257098,
   "Longitude": -75.5340387,
   "Website": "http://iron-cross-athletics.com/"
 },
 {
   "Name": "Basin CrossFit",
   "Address": "4310 W Illinois, Suite 150 Midland US 79703 ",
   "Latitude": 31.9890252,
   "Longitude": -102.131208,
   "Website": "http://www.BasinCrossFit.com"
 },
 {
   "Name": "CrossFit Code 4",
   "Address": "930 Flynn Rd Unit I Camarillo US 93012 ",
   "Latitude": 34.2260611,
   "Longitude": -119.0196398,
   "Website": "http://www.crossfitcode4.com/"
 },
 {
   "Name": "Voodoo CrossFit 512",
   "Address": "13170 G Pond Springs Rd. Austin US 78729 ",
   "Latitude": 30.4445433,
   "Longitude": -97.7781127,
   "Website": "http://www.voodoocrossfit512.com/"
 },
 {
   "Name": "CrossFit Espoo",
   "Address": "Käärmesaarentie 3B Espoo FI 2160 ",
   "Latitude": 60.167686,
   "Longitude": 24.805225,
   "Website": "http://ww.crossfitespoo.com"
 },
 {
   "Name": "CrossFit Chamblee",
   "Address": "2050-F Chamblee Tucker Road Atlanta US 30341 ",
   "Latitude": 33.8862187,
   "Longitude": -84.3043106,
   "Website": "http://www.crossfitchamblee.com/"
 },
 {
   "Name": "CrossFit eXalted",
   "Address": "118 Central Park Place Sanford US 32771 ",
   "Latitude": 28.801597,
   "Longitude": -81.3181513,
   "Website": "http://www.CrossFitExalted.com"
 },
 {
   "Name": "CrossFit Salisbury",
   "Address": "406B Marvel Road Salisbury US 21804 ",
   "Latitude": 38.3994136,
   "Longitude": -75.5816923,
   "Website": "http://www.crossfitsalisburymd.com/"
 },
 {
   "Name": "Shipyard CrossFit",
   "Address": "2227 Mariner Square Loop Alameda US 94501 ",
   "Latitude": 37.786078,
   "Longitude": -122.2784074,
   "Website": "http://www.crossfitmarinersquare.com/"
 },
 {
   "Name": "CrossFit AllStar",
   "Address": "64-1032 Mamalahoa Hwy, #303 Kamuela US 96743 ",
   "Latitude": 20.026272,
   "Longitude": -155.6596821,
   "Website": "http://www.crossfitallstar.com/"
 },
 {
   "Name": "Nela CrossFit Eagle Rock",
   "Address": "4662 Eagle Rock Blvd Los Angeles US 90041 ",
   "Latitude": 34.129036,
   "Longitude": -118.216665,
   "Website": "http://www.crossfiteaglerock.com"
 },
 {
   "Name": "CrossFit Almere",
   "Address": "Televisieweg 64 Almere NL 1322 AM ",
   "Latitude": 52.3501188,
   "Longitude": 5.1804701,
   "Website": "http://www.crossfitalmere.nl/"
 },
 {
   "Name": "CrossFit Rise Above",
   "Address": "1236 Sarno Road Melbourne US 32935 ",
   "Latitude": 28.1224963,
   "Longitude": -80.639382,
   "Website": "http://www.crossfitriseabove.com"
 },
 {
   "Name": "CrossFit Bournemouth",
   "Address": "110 Castle Lane West Bournemouth GB BH9 3JU ",
   "Latitude": 50.7576488,
   "Longitude": -1.8659378,
   "Website": "http://www.crossfitbournemouth.com/"
 },
 {
   "Name": "K-State CrossFit",
   "Address": "KSU-Kinesiology Dept., Natatorium 1A Manhattan US 66506 ",
   "Latitude": 40.7830603,
   "Longitude": -73.9712488,
   "Website": "http://www.k-state.edu/kines/crossfit/"
 },
 {
   "Name": "CrossFit 6330",
   "Address": "70 Lion St Albany AU 6330 ",
   "Latitude": -35.0056735,
   "Longitude": 117.8727228,
   "Website": "http://crossfit6330.com.au/"
 },
 {
   "Name": "Windsor CrossFit",
   "Address": "1106 Laramie St Tecumseh CA N8N 3B7 ",
   "Latitude": 42.3133379,
   "Longitude": -82.8894833,
   "Website": "http://windsorcrossfit.com/"
 },
 {
   "Name": "CrossFit Geo",
   "Address": "24B/33-37 College Street Gladesville AU 2111 ",
   "Latitude": -33.8205235,
   "Longitude": 151.1222518,
   "Website": "http://crossfitgeo.com.au/"
 },
 {
   "Name": "CrossFit Quattro Kingsland",
   "Address": "7 Central Rd Kingsland NZ 1021 ",
   "Latitude": -36.8706563,
   "Longitude": 174.7452266,
   "Website": "http://crossfitquattro.com/"
 },
 {
   "Name": "CrossFit Medford",
   "Address": "18 Charles Street, Suite J Medford US 8055 ",
   "Latitude": 39.9020144,
   "Longitude": -74.822109,
   "Website": "http://www.crossfitmedford.com/"
 },
 {
   "Name": "CrossFit 858",
   "Address": "5841 Mission Gorge Rd, Suite H San Diego US 92120 ",
   "Latitude": 32.7813706,
   "Longitude": -117.099704,
   "Website": "http://www.crossfit858.com"
 },
 {
   "Name": "CrossFit Montpellier",
   "Address": "200 Chemin du Rieucoulon Saint Jean de Védas FR 34430 ",
   "Latitude": 43.5789929,
   "Longitude": 3.850568,
   "Website": "http://www.crossfitmontpellier.fr/"
 },
 {
   "Name": "CrossFit CrownTown",
   "Address": "1950 Compton Ave Unit 102 Corona US 92883 ",
   "Latitude": 33.8521095,
   "Longitude": -117.5366429,
   "Website": "http://crossfitcrowntown.wordpress.com/"
 },
 {
   "Name": "CrossFit Optimistic",
   "Address": "16675 Huebner Road, Suite 207 San Antonio US 78248 ",
   "Latitude": 29.5959689,
   "Longitude": -98.5272207,
   "Website": "http://crossfitoptimistic.com/"
 },
 {
   "Name": "C4 CrossFit",
   "Address": "20527 FM 1093, #C6 Richmond US 77407 ",
   "Latitude": 29.7019535,
   "Longitude": -95.7402053,
   "Website": "https://www.c4-crossfit.com/"
 },
 {
   "Name": "Timberwolf CrossFit",
   "Address": "600 W 7th Street St Paul US 55102 ",
   "Latitude": 44.9350834,
   "Longitude": -93.1154776,
   "Website": "http://www.timberwolfcrossfit.com/"
 },
 {
   "Name": "CrossFit Teesside",
   "Address": "60E Lord Avenue Teesside Industrial Estate Stockton on Tees GB TS17 9JX ",
   "Latitude": 54.5251874,
   "Longitude": -1.2916362,
   "Website": "http://crossfitteesside.co.uk/"
 },
 {
   "Name": "CrossFit Goat",
   "Address": "832 Dacula Road, Suite 101 Dacula US 30019 ",
   "Latitude": 34.0072717,
   "Longitude": -83.9152505,
   "Website": "http://www.crossfitgoat.com/"
 },
 {
   "Name": "CrossFit Jerusalem",
   "Address": "YMCA Sports Center- George Washington 4a Jerusalem IL 94187 ",
   "Latitude": 31.768319,
   "Longitude": 35.21371,
   "Website": "http://www.crossfitjerusalem.com/"
 },
 {
   "Name": "CrossFit Truth",
   "Address": "2110 E Rusk Street Jacksonville US 75766 ",
   "Latitude": 31.9704839,
   "Longitude": -95.2295631,
   "Website": "http://www.Crossfit-truth.com"
 },
 {
   "Name": "CrossFit Barrington",
   "Address": "28066 W. Commercial Ave 8 & 9 Barrington US 60010 ",
   "Latitude": 42.1831513,
   "Longitude": -88.1811476,
   "Website": "http://www.crossfitbarrington.com/"
 },
 {
   "Name": "CrossFit BodiComplete",
   "Address": "9 Yalgar Road Kirrawee AU 2232 ",
   "Latitude": -34.0265846,
   "Longitude": 151.0757491,
   "Website": "http://crossfitbodicomplete.com/"
 },
 {
   "Name": "CrossFit Terre Haute",
   "Address": "1839 N 4th Street Terre Haute US 47804 ",
   "Latitude": 39.4882108,
   "Longitude": -87.4125299,
   "Website": "http://crossfitterrehaute.uhhg.org/"
 },
 {
   "Name": "Cloud Peak CrossFit",
   "Address": "108 Grinell St. Sheridan US 82801 ",
   "Latitude": 44.7993351,
   "Longitude": -106.9544498,
   "Website": "https://www.cloudpeakcrossfit.com/"
 },
 {
   "Name": "CrossFit Puyallup",
   "Address": "2323 East Pioneer Way Suite D Puyallup US 98372 ",
   "Latitude": 47.187471,
   "Longitude": -122.2624204,
   "Website": "http://crossfitpuyallup.net/"
 },
 {
   "Name": "Free Range CrossFit",
   "Address": "5030 S Mill Ave, Suite 23 Tempe US 85282 ",
   "Latitude": 33.3790726,
   "Longitude": -111.9401001,
   "Website": "http://www.freerangecrossfit.com/"
 },
 {
   "Name": "CrossFit Horizons",
   "Address": "1/51 Wallsend Rd Sandgate AU 2304 ",
   "Latitude": -32.8725734,
   "Longitude": 151.7057258,
   "Website": "http://crossfithorizons.blogspot.com/"
 },
 {
   "Name": "CrossFit Edwardsville",
   "Address": "18 Kettle River Glen Carbon US 62034 ",
   "Latitude": 38.7806929,
   "Longitude": -89.9628622,
   "Website": "http://crossfitedwardsville.com/"
 },
 {
   "Name": "CrossFit Industrious",
   "Address": "21609 Hwy 99 Ste C Lynnwood US 98036 ",
   "Latitude": 47.8029327,
   "Longitude": -122.3281966,
   "Website": "http://www.crossfitindustrious.com"
 },
 {
   "Name": "Riginal CrossFit Nürnberg",
   "Address": "Lenkersheimer Str 10a Nuernberg DE 90431 ",
   "Latitude": 49.4484684,
   "Longitude": 11.0147696,
   "Website": "https://www.rcfn-training.com/"
 },
 {
   "Name": "CrossFit Florian",
   "Address": "50 Central Street Norwood US 2062 ",
   "Latitude": 42.1929389,
   "Longitude": -71.2005026,
   "Website": "http://crossfitflorian.com/"
 },
 {
   "Name": "Deka CrossFit",
   "Address": "74 boul. de la Seigneurie unit 11 Blainville CA J7C 4N1 ",
   "Latitude": 45.6747911,
   "Longitude": -73.8617402,
   "Website": "http://www.dekacrossfit.com/"
 },
 {
   "Name": "CrossFit True",
   "Address": "11 Overlook Dr Hamden US 6514 ",
   "Latitude": 41.3998557,
   "Longitude": -72.9198406,
   "Website": "http://www.true-athletics.com/"
 },
 {
   "Name": "Warrior Pride Fitness CrossFit",
   "Address": "3405 Dallas Hwy St 401 Marietta US 30064 ",
   "Latitude": 33.952434,
   "Longitude": -84.6512229,
   "Website": "http://www.warriorpridefitness.com/crossfit/"
 },
 {
   "Name": "CrossFit Faction",
   "Address": "Harrison Street Unit 5a, Golden Triable Industrial Estate Widnes GB WA8 8TN ",
   "Latitude": 53.3549392,
   "Longitude": -2.7673213,
   "Website": "http://www.crossfitfaction.co.uk/"
 },
 {
   "Name": "CrossFit Murray",
   "Address": "1184 Poor Farm Rd Murray US 42071 ",
   "Latitude": 36.6461477,
   "Longitude": -88.3293571,
   "Website": "http://crossfitmurray.blogspot.com/"
 },
 {
   "Name": "CrossFit Westgate",
   "Address": "1/60 Albemarle Street, North Williamstown Melbourne AU 3016 ",
   "Latitude": -37.8501032,
   "Longitude": 144.8593277,
   "Website": "http://www.crossfitwestgate.com.au/"
 },
 {
   "Name": "RDAS CrossFit",
   "Address": " Makerstoun GB TD5 7PA ",
   "Latitude": 55.5839453,
   "Longitude": -2.5235484,
   "Website": "http://www.rdasgym.co.uk/"
 },
 {
   "Name": "CrossFit Apollo",
   "Address": "6535 North Buffalo Drive, Suite 160-170 Las Vegas US 89131 ",
   "Latitude": 36.2814469,
   "Longitude": -115.2657497,
   "Website": "http://www.CrossFitApollo.com"
 },
 {
   "Name": "East Dallas CrossFit",
   "Address": "7230 Gaston Ave Dallas US 75214 ",
   "Latitude": 32.8125351,
   "Longitude": -96.7322769,
   "Website": "http://www.eastdallascrossfit.com/"
 },
 {
   "Name": "CrossFit RTP",
   "Address": "4909 South Alston Avenue Durham US 27713 ",
   "Latitude": 35.8939838,
   "Longitude": -78.8884865,
   "Website": "http://crossfitrtp.com/"
 },
 {
   "Name": "CrossFit ACE 1060",
   "Address": "Bluemelgasse 1 Vienna AT 1060 ",
   "Latitude": 48.1969029,
   "Longitude": 16.3519354,
   "Website": "http://www.crossfitace.at"
 },
 {
   "Name": "CrossFit Entreno Cruzado",
   "Address": "Carrer de Sor Isabel Cifre, 30 Palma de Mallorca ES 7007 ",
   "Latitude": 39.5574101,
   "Longitude": 2.6832779,
   "Website": "http://www.crossfitentrenocruzado.com/"
 },
 {
   "Name": "CrossFit Diamond Valley",
   "Address": "1b 266 Bolton Street Melbourne AU 3095 ",
   "Latitude": -37.720178,
   "Longitude": 145.138187,
   "Website": "http://crossfitdiamondvalley.com/"
 },
 {
   "Name": "Jersey Devil CrossFit",
   "Address": "29 South Washington St Hammonton US 8037 ",
   "Latitude": 39.643728,
   "Longitude": -74.7571147,
   "Website": "http://www.jerseydevilcrossfit.com/"
 },
 {
   "Name": "FTX CrossFit",
   "Address": "1010 W. Geneva RD Wheaton US 60187 ",
   "Latitude": 41.8874288,
   "Longitude": -88.122141,
   "Website": "http://www.ftxcrossfit.com/"
 },
 {
   "Name": "CrossFit Maitland",
   "Address": "219 High Street Maitland AU 2320 ",
   "Latitude": -32.7394182,
   "Longitude": 151.5623095,
   "Website": "http://www.crossfitmaitland.com.au/"
 },
 {
   "Name": "CrossFit City Line",
   "Address": "69 Howard St. Watertown US 2472 ",
   "Latitude": 42.3685668,
   "Longitude": -71.1960007,
   "Website": "http://www.CrossFitCityLine.com"
 },
 {
   "Name": "CrossFit Karlstad",
   "Address": "Rattgatan 4 Karlstad SE 653 42 ",
   "Latitude": 59.3867124,
   "Longitude": 13.4791556,
   "Website": "http://www.crossfitkarlstad.se/"
 },
 {
   "Name": "CrossFit Mainz",
   "Address": "Ober-Saulheimerstr. 24 Wörrstadt DE 55286 ",
   "Latitude": 49.85358,
   "Longitude": 8.123244,
   "Website": "http://www.crossfit-mainz.de/"
 },
 {
   "Name": "CrossFit Blue Ash",
   "Address": "11308 Tamarco Cincinnati US 45242 ",
   "Latitude": 39.2705723,
   "Longitude": -84.3588348,
   "Website": "http://crossfitblueash.com/"
 },
 {
   "Name": "CrossFit 416",
   "Address": "390 Queens Quay W. Unit 114 Toronto CA M5V 3A6 ",
   "Latitude": 43.6384582,
   "Longitude": -79.3906374,
   "Website": "http://www.crossfit416.ca"
 },
 {
   "Name": "Predation CrossFit",
   "Address": "3627 E Springfield Ave Spokane US 99202 ",
   "Latitude": 47.6640154,
   "Longitude": -117.3566654,
   "Website": "http://www.predationcrossfit.com"
 },
 {
   "Name": "CrossFit Beverly",
   "Address": "3037 W. 111th St Chicago US 60655 ",
   "Latitude": 41.6913436,
   "Longitude": -87.6975925,
   "Website": "http://crossfitbeverly.com/"
 },
 {
   "Name": "CrossFit Credence",
   "Address": "3020 Broadway Ave. N Rochester US 55906 ",
   "Latitude": 44.0553543,
   "Longitude": -92.4537701,
   "Website": "http://CrossFitcredence.com"
 },
 {
   "Name": "CrossFit Devotion",
   "Address": "15227 SE 283rd Pl Covington US 98042 ",
   "Latitude": 47.3471361,
   "Longitude": -122.1384651,
   "Website": "http://crossfitdevotion.com/"
 },
 {
   "Name": "CrossFit Moorabbin",
   "Address": "16 Coachranes Road Moorabbin AU 3189 ",
   "Latitude": -37.9424872,
   "Longitude": 145.061888,
   "Website": "http://www.crossfitmoorabbin.com"
 },
 {
   "Name": "CrossFit Zachary",
   "Address": "3204 Highway 19 Zachary US 70791 ",
   "Latitude": 30.6382073,
   "Longitude": -91.1551338,
   "Website": "http://www.crossfitzachary.com/"
 },
 {
   "Name": "CrossFit ProVerb",
   "Address": "517 Concord Industrial Dr Seneca US 29672 ",
   "Latitude": 34.7081127,
   "Longitude": -82.9940213,
   "Website": "http://www.crossfitproverb.com/"
 },
 {
   "Name": "XS CrossFit",
   "Address": "6522 E Ponderosa Drive Parker US 80138 ",
   "Latitude": 39.5394033,
   "Longitude": -104.7662916,
   "Website": "http://xscrossfit.com/"
 },
 {
   "Name": "Duke City CrossFit",
   "Address": "520 Airport DR. (Suite A-9) Albuquerque US 87121 ",
   "Latitude": 35.0866401,
   "Longitude": -106.7170233,
   "Website": "http://www.dukecitycrossfit.com"
 },
 {
   "Name": "CrossFit Yuma",
   "Address": "1735 S 1st Ave Yuma US 85364 ",
   "Latitude": 32.6960633,
   "Longitude": -114.6198939,
   "Website": "http://www.crossfityuma.net/"
 },
 {
   "Name": "CrossFit Sudbury",
   "Address": "95 Pacific Ave. Unit 4 Sudbury CA P3C 3J1 ",
   "Latitude": 46.4740525,
   "Longitude": -81.0209544,
   "Website": "http://www.crossfitsudbury.com/"
 },
 {
   "Name": "Eternity CrossFit",
   "Address": "27130 Paseo Espada San Juan Capistrano US 92675 ",
   "Latitude": 33.5002293,
   "Longitude": -117.6567311,
   "Website": "http://www.eternitycrossfit.com/pages/home"
 },
 {
   "Name": "CrossFit Dubuque",
   "Address": "3080 Cedar Crest Court, Suite 102 Dubuque US 52003 ",
   "Latitude": 42.4783781,
   "Longitude": -90.7066011,
   "Website": "http://crossfitdubuque.com/"
 },
 {
   "Name": "CrossFit Essen",
   "Address": "Schürmannstr. 32 Essen DE 45136 ",
   "Latitude": 51.432837,
   "Longitude": 7.0294589,
   "Website": "http://www.crossfit-essen.de/"
 },
 {
   "Name": "CrossFit 7220",
   "Address": "411 S. 20th Street Laramie US 82070 ",
   "Latitude": 41.3082232,
   "Longitude": -105.5685506,
   "Website": "http://crossfit7220.com/"
 },
 {
   "Name": "Helotes CrossFit",
   "Address": "12266 Bandera Road #301 Helotes US 78023 ",
   "Latitude": 29.5587157,
   "Longitude": -98.6726076,
   "Website": "http://www.helotescrossfit.com/"
 },
 {
   "Name": "CrossFit 964",
   "Address": "Via Eduardo Nicolardi 16 Napoli IT 80131 ",
   "Latitude": 40.8693936,
   "Longitude": 14.2346605,
   "Website": "http://www.crossfitnapoli.com/"
 },
 {
   "Name": "CrossFit Borgen",
   "Address": "Hemvägen 14 Alingsas SE 44140 ",
   "Latitude": 57.924185,
   "Longitude": 12.5392628,
   "Website": "http://crossfitborgen.se/"
 },
 {
   "Name": "CrossFit Trifecta",
   "Address": "2588 Progress Street, Units 2 & 5 Vista US 92081 ",
   "Latitude": 33.1458317,
   "Longitude": -117.2186524,
   "Website": "http://www.crossfittrifecta.com"
 },
 {
   "Name": "Sycamore CrossFit",
   "Address": "1330 East State Street Sycamore US 60178 ",
   "Latitude": 41.9841932,
   "Longitude": -88.6583488,
   "Website": "http://www.sycamorecrossfit.com/"
 },
 {
   "Name": "CrossFit HH",
   "Address": "Steilshooper Strasse 35 Hamburg DE 22305 ",
   "Latitude": 53.5860877,
   "Longitude": 10.0482771,
   "Website": "http://www.crossfithh.de"
 },
 {
   "Name": "CrossFit 502",
   "Address": "37-01 C.C. Arcadia de Cayalá Local 07, Blvrd Austriaco Guatemala GT  ",
   "Latitude": 14.6106057,
   "Longitude": -90.4834037,
   "Website": "http://www.crossfit502.com/"
 },
 {
   "Name": "CrossFit Bel Air",
   "Address": "350 Granary Road Forest Hill US 21050 ",
   "Latitude": 39.5683572,
   "Longitude": -76.3603913,
   "Website": "http://www.crossfitbelair.com/"
 },
 {
   "Name": "CrossFit Hyperion",
   "Address": "1983 W. 680 N. #5 Pleasant Grove US 84062 ",
   "Latitude": 40.3704764,
   "Longitude": -111.7679172,
   "Website": "http://www.crossfithyperion.com/"
 },
 {
   "Name": "Myriad CrossFit",
   "Address": "922 N. Capitol Ave Indianapolis US 46204 ",
   "Latitude": 39.7807232,
   "Longitude": -86.1615843,
   "Website": "http://www.crossfitnaptown.com/"
 },
 {
   "Name": "CrossFit 138",
   "Address": "120 138th Street South Tacoma US 98444 ",
   "Latitude": 47.1311013,
   "Longitude": -122.4328724,
   "Website": "http://www.crossfit138.com"
 },
 {
   "Name": "CrossFit Glevum",
   "Address": "Unit 12, The Quadrant Centre, Waterwells Business Park Gloucester GB GL2 2RN ",
   "Latitude": 51.8118743,
   "Longitude": -2.270434,
   "Website": "http://www.reebokcrossfitglevum.com/"
 },
 {
   "Name": "CrossFit Rush Hour Ryde",
   "Address": "Unit 8 2-4 Giffnock Ave Macquarie Park AU 2113 ",
   "Latitude": -33.7858042,
   "Longitude": 151.1260508,
   "Website": "https://rushhour.net.au/crossfit-ryde/"
 },
 {
   "Name": "CrossFit Arvada",
   "Address": "14700 W 66th Place, Unit 6 Arvada US 80004 ",
   "Latitude": 39.8161926,
   "Longitude": -105.1639941,
   "Website": "http://crossfitarvada.com/"
 },
 {
   "Name": "CrossFit YUL",
   "Address": "78c Brunswick Blvd. Dollard-Des-Ormeaux CA H9B 2C5 ",
   "Latitude": 45.4784508,
   "Longitude": -73.8073169,
   "Website": "http://reebokcrossfityul.com/"
 },
 {
   "Name": "CrossFit Nottingham",
   "Address": "8 Robin Hood Industrial Estate Alfred Street South Nottingham GB NG3 1GE ",
   "Latitude": 52.9566914,
   "Longitude": -1.1352546,
   "Website": "http://www.crossfitnottingham.co.uk/"
 },
 {
   "Name": "CrossFit Medway",
   "Address": "Unit 4 Crusader Close Gillingham GB ME8 0PR ",
   "Latitude": 51.363493,
   "Longitude": 0.577856,
   "Website": "http://crossfit-medway.co.uk/"
 },
 {
   "Name": "CrossFit MTS",
   "Address": "Unit 10, 27 Beaverhall Road Edinburgh GB EH7 4JE ",
   "Latitude": 55.9651272,
   "Longitude": -3.1925459,
   "Website": "http://crossfitmts.co.uk/"
 },
 {
   "Name": "CrossFit 306",
   "Address": "3634 Mitchelmore Avenue Unit B Saskatoon CA S7P 0B9 ",
   "Latitude": 52.1944037,
   "Longitude": -106.6427563,
   "Website": "https://crossfit306.ca/"
 },
 {
   "Name": "CrossFit Train",
   "Address": "2031 Bryant Street Denver US 80211 ",
   "Latitude": 39.7482191,
   "Longitude": -105.0192144,
   "Website": "http://www.crossfittrain.com/"
 },
 {
   "Name": "Edinburg CrossFit",
   "Address": "4803 S. Business Hwy. 281 Edinburg US 78539 ",
   "Latitude": 26.2555738,
   "Longitude": -98.1742905,
   "Website": "http://www.crossfitrockkore.com/"
 },
 {
   "Name": "CrossFit Norrort",
   "Address": "Engelbrekts väg 17 Sollentuna SE 191 62 ",
   "Latitude": 59.4306786,
   "Longitude": 17.9430779,
   "Website": "http://www.crossfitnorrort.se"
 },
 {
   "Name": "CrossFit Oceana",
   "Address": "1333 Harpers Rd, #109 Virginia Beach US 23454 ",
   "Latitude": 36.7996625,
   "Longitude": -76.0052887,
   "Website": "http://www.crossfitoceana.com/"
 },
 {
   "Name": "Gardens CrossFit",
   "Address": "4098 PGA Blvd Palm Beach Gardens US 33410 ",
   "Latitude": 26.8394833,
   "Longitude": -80.100216,
   "Website": "http://www.gardenscrossfit.com/"
 },
 {
   "Name": "CrossFit 307",
   "Address": "300 Landmark Dr. Casper US 82609 ",
   "Latitude": 42.846476,
   "Longitude": -106.2623361,
   "Website": "http://www.crossfit307.com/"
 },
 {
   "Name": "Aliso CrossFit",
   "Address": "6 Journey, Suite 300 Aliso Viejo US 92656 ",
   "Latitude": 33.5687812,
   "Longitude": -117.7282606,
   "Website": "http://www.alisocrossfit.com"
 },
 {
   "Name": "CrossFit 2232",
   "Address": "1131 Main Street Bryson City US 28713 ",
   "Latitude": 35.4326289,
   "Longitude": -83.4305462,
   "Website": "http://www.crossfit2232.com"
 },
 {
   "Name": "CrossFit Electric City",
   "Address": "111 E Calhoun Street Anderson US 29621 ",
   "Latitude": 34.5087833,
   "Longitude": -82.6505004,
   "Website": "http://www.crossfitelectriccity.com/"
 },
 {
   "Name": "CrossFit Valens",
   "Address": "20 Rue des Peupliers Luxembourg LU L-2328 ",
   "Latitude": 49.6134611,
   "Longitude": 6.1645099,
   "Website": "http://www.reebokcrossfitvalens.com/"
 },
 {
   "Name": "CrossFit 5150",
   "Address": "1480 E 28th St Signal Hill US 90755 ",
   "Latitude": 33.8078183,
   "Longitude": -118.1732245,
   "Website": "http://www.crossfit5150.com"
 },
 {
   "Name": "Fit Strong United CrossFit",
   "Address": "118 North Star Street Victoria US 77904 ",
   "Latitude": 28.8383675,
   "Longitude": -97.0042553,
   "Website": "http://fitstrongunitedcrossfit.com/"
 },
 {
   "Name": "CrossFit Evviva",
   "Address": "247 Washington St Eugene US 97401 ",
   "Latitude": 44.0637173,
   "Longitude": -123.0847061,
   "Website": "http://crossfitevviva.com/"
 },
 {
   "Name": "CrossFit Chatswood",
   "Address": "31/28 Barcoo St. Chatswood AU 2069 ",
   "Latitude": -33.7846803,
   "Longitude": 151.1959274,
   "Website": "http://www.crossfitchatswood.com/"
 },
 {
   "Name": "CrossFit Free",
   "Address": "5-7 Delaware Drive, Unit 3 Salem US 3079 ",
   "Latitude": 42.7640801,
   "Longitude": -71.2413271,
   "Website": "http://www.crossfitfree.com"
 },
 {
   "Name": "CrossFit Weddington",
   "Address": "5207 Weddington Monroe Rd Weddington US 28104 ",
   "Latitude": 35.001671,
   "Longitude": -80.7122159,
   "Website": "http://crossfitweddington.com/"
 },
 {
   "Name": "CrossFit PE",
   "Address": "2820 SE 8th Ave Portland US 97202 ",
   "Latitude": 45.5024474,
   "Longitude": -122.6574376,
   "Website": "http://crossfitpe.com/"
 },
 {
   "Name": "CrossFit Turku",
   "Address": "Raunistulantie 25 Turku FI 20300 ",
   "Latitude": 60.4653283,
   "Longitude": 22.2804219,
   "Website": "http://www.crossfitturku.fi/"
 },
 {
   "Name": "CrossFit Crown City",
   "Address": "780 S Arroyo Pkwy Pasadena US 91105 ",
   "Latitude": 34.1323568,
   "Longitude": -118.1469401,
   "Website": "http://www.crossfitcrowncity.com/"
 },
 {
   "Name": "Functional Strength CrossFit",
   "Address": "7A Piermark Drive Albany NZ 632 ",
   "Latitude": -36.7475713,
   "Longitude": 174.7031161,
   "Website": "http://functionalstrengthcrossfit.com/"
 },
 {
   "Name": "CrossFit 100",
   "Address": "4927 N Lydell Avenue Glendale US 53217 ",
   "Latitude": 43.1065616,
   "Longitude": -87.9125143,
   "Website": "http://crossfit100.com/"
 },
 {
   "Name": "CrossFit Unstoppable",
   "Address": "605 Missouri Blvd Ct Jefferson City US 65109 ",
   "Latitude": 38.5807495,
   "Longitude": -92.1941757,
   "Website": "http://www.crossfitunstoppable.com/"
 },
 {
   "Name": "CrossFit Celsius",
   "Address": "13260 W. Foxfire Drive, Suite 15 Surprise US 85374 ",
   "Latitude": 33.64239,
   "Longitude": -112.3452177,
   "Website": "http://www.crossfitcelsius.com/"
 },
 {
   "Name": "CrossFit Fontana",
   "Address": "7940 Cherry Avenue, Unit 205 Fontana US 92336 ",
   "Latitude": 34.1096933,
   "Longitude": -117.4898613,
   "Website": "http://www.crossfitfontana.com/"
 },
 {
   "Name": "CrossFit Hartford",
   "Address": "221 Newfield Ave Hartford US 6106 ",
   "Latitude": 41.7385638,
   "Longitude": -72.7156736,
   "Website": "https://crossfit-hartford.triib.com/"
 },
 {
   "Name": "CrossFit Hephzibah",
   "Address": "2356-B Hwy. 88 Hephzibah US 30815 ",
   "Latitude": 33.3197527,
   "Longitude": -82.0755529,
   "Website": "http://crossfithephzibah.com/index.html"
 },
 {
   "Name": "CrossFit MSD",
   "Address": "3/62 West Mooreville Road Burnie AU 7320 ",
   "Latitude": -41.0573293,
   "Longitude": 145.8734148,
   "Website": "http://crossfitmsd.com.au/"
 },
 {
   "Name": "CrossFit Denham Springs",
   "Address": "33914 LA Hwy 16 Denham Springs US 70706 ",
   "Latitude": 30.5598429,
   "Longitude": -90.9539649,
   "Website": "http://www.crossfitdenhamsprings.com"
 },
 {
   "Name": "CrossFit Bartlesville",
   "Address": "3822 SE Kentucky Suite 13-14 Bartlesville US 74006 ",
   "Latitude": 36.7557331,
   "Longitude": -95.93375,
   "Website": "http://www.crossfitbartlesville.com"
 },
 {
   "Name": "Bridgetown CrossFit and Barbell Club",
   "Address": "740 N Russell Street Portland US 97227 ",
   "Latitude": 45.5408291,
   "Longitude": -122.6744184,
   "Website": "http://bridgetowncrossfit.com/"
 },
 {
   "Name": "CrossFit Burlingame",
   "Address": "345 North Amphlett Blvd San Mateo US 94401 ",
   "Latitude": 37.5782316,
   "Longitude": -122.3229454,
   "Website": "http://crossfitburlingame.com/"
 },
 {
   "Name": "CrossFit Oakdale",
   "Address": "1872 Ackley Circle, #10 Oakdale US 95361 ",
   "Latitude": 37.7489611,
   "Longitude": -120.8376612,
   "Website": "http://cfoakdale.com/"
 },
 {
   "Name": "CrossFit The Stables",
   "Address": "158 Brisbane Road Mooloolaba AU 4557 ",
   "Latitude": -26.6909,
   "Longitude": 153.114862,
   "Website": "http://crossfitthestables.com"
 },
 {
   "Name": "CrossFit Toulouse",
   "Address": "64, route de Grenade Beauzelle FR 31700 ",
   "Latitude": 43.6694928,
   "Longitude": 1.369727,
   "Website": "https://kulturefit.fr/"
 },
 {
   "Name": "CrossFit Reebok 020",
   "Address": "Hoogoorddreef 3 Amsterdam NL 1101 BA ",
   "Latitude": 52.309993,
   "Longitude": 4.94692,
   "Website": "http://www.reebokcrossfit020.nl/"
 },
 {
   "Name": "CrossFit 356",
   "Address": "Triq in-Negozju Mriehel MT BKR 3000 ",
   "Latitude": 35.8874156,
   "Longitude": 14.4687911,
   "Website": "http://www.crossfit356.com.mt/"
 },
 {
   "Name": "Undefeated CrossFit",
   "Address": "11-1100 Waverley St Winnipeg CA R3T 3X9 ",
   "Latitude": 49.836747,
   "Longitude": -97.17799,
   "Website": "http://www.undefeatedcrossfit.com/"
 },
 {
   "Name": "CrossFit Pella",
   "Address": "925 Opportunity Place Pella US 50219 ",
   "Latitude": 41.4080327,
   "Longitude": -92.916405,
   "Website": "http://crossfitpella.com/"
 },
 {
   "Name": "Myleo CrossFit",
   "Address": "Franklinstr. 10 Berlin DE 10587 ",
   "Latitude": 52.519774,
   "Longitude": 13.328656,
   "Website": "http://myleo.de/"
 },
 {
   "Name": "CrossFit CCF Athletics",
   "Address": "13781 Roswell Ave, Unit E Chino US 91710 ",
   "Latitude": 34.0023725,
   "Longitude": -117.7213013,
   "Website": "https://www.ccfathletics.com/"
 },
 {
   "Name": "CrossFit 3000",
   "Address": "43-49 Buckhurst Street South Melbourne AU 3205 ",
   "Latitude": -37.8302557,
   "Longitude": 144.9520032,
   "Website": "http://crossfit3000.com/"
 },
 {
   "Name": "CrossFit Mohawk Valley",
   "Address": "9647 River Road Marcy US 13403 ",
   "Latitude": 43.131001,
   "Longitude": -75.2490624,
   "Website": "http://www.crossfitmohawkvalley.com/"
 },
 {
   "Name": "CrossFit North Peoria",
   "Address": "8002 Sommer Street Peoria US 61615 ",
   "Latitude": 40.7849947,
   "Longitude": -89.6128407,
   "Website": "http://www.crossfitnorthpeoria.com"
 },
 {
   "Name": "CrossFit Deventer",
   "Address": "Tartustraat 2 Deventer NL 7418GX ",
   "Latitude": 52.2416325,
   "Longitude": 6.2062352,
   "Website": "http://www.crossfitdeventer.nl/"
 },
 {
   "Name": "Five Rivers CrossFit",
   "Address": "2813 W Andrew Johnson Highway, Box 3 Morristown US 37814 ",
   "Latitude": 36.2010805,
   "Longitude": -83.3341081,
   "Website": "http://10exlife.com/"
 },
 {
   "Name": "CrossFit Pretoria",
   "Address": "77 Lys Street Pretoria ZA 84 ",
   "Latitude": -25.7298073,
   "Longitude": 28.2167062,
   "Website": "http://www.crossfitpretoria.co.za"
 },
 {
   "Name": "CrossFit 33100",
   "Address": "Pirkankatu 37 Tampere FI 33230 ",
   "Latitude": 61.4985432,
   "Longitude": 23.726508,
   "Website": "http://crossfit33100.com/"
 },
 {
   "Name": "Paradigm CrossFit",
   "Address": "7011 Realm Drive, Suite A6 San Jose US 95119 ",
   "Latitude": 37.2288591,
   "Longitude": -121.7777758,
   "Website": "http://www.paradigmcrossfit.com/index.php"
 },
 {
   "Name": "CrossFit Wilson",
   "Address": "2804 Forest Hills Rd Wilson US 27893 ",
   "Latitude": 35.7090041,
   "Longitude": -77.952622,
   "Website": "http://www.crossfitwilson.com/"
 },
 {
   "Name": "CrossFit Reach",
   "Address": "930 Main Street, Suite 204 Acton US 1720 ",
   "Latitude": 42.5237489,
   "Longitude": -71.4046105,
   "Website": "http://crossfitreach.com"
 },
 {
   "Name": "CrossFit 207",
   "Address": "10 Renaissance Way Sanford US 4073 ",
   "Latitude": 43.4126301,
   "Longitude": -70.7464627,
   "Website": "http://crossfit207.com/"
 },
 {
   "Name": "CrossFit Livin",
   "Address": "43 Main Bentra Road Ballycarry GB BT38 9JY ",
   "Latitude": 54.7616116,
   "Longitude": -5.74538,
   "Website": "http://www.crossfitwestdublin.com/"
 },
 {
   "Name": "Skyline CrossFit",
   "Address": "551 N. Sheperd Dr. #200 Houston US 77007 ",
   "Latitude": 29.7817206,
   "Longitude": -95.4098328,
   "Website": "http://skylinecrossfit.com/"
 },
 {
   "Name": "Mat-Su CrossFit",
   "Address": "7610 Palmer Wasilla Highway Palmer US 99645 ",
   "Latitude": 61.5985923,
   "Longitude": -149.2588247,
   "Website": "http://www.matsucrossfit.com/"
 },
 {
   "Name": "CrossFit 302",
   "Address": "406 E Profit Victoria US 77901 ",
   "Latitude": 28.8066384,
   "Longitude": -96.9960925,
   "Website": "http://www.crossfit302.com/"
 },
 {
   "Name": "CrossFit Foothill",
   "Address": "9650 9th Street #E Rancho Cucamonga US 91730 ",
   "Latitude": 34.0971764,
   "Longitude": -117.5954966,
   "Website": "http://crossfit-foothill.com/"
 },
 {
   "Name": "CrossFit Colossus",
   "Address": "Unit 1/10 Electra Place Mornington AU 7018 ",
   "Latitude": -42.8583195,
   "Longitude": 147.3929376,
   "Website": "http://crossfitcolossus.com.au/"
 },
 {
   "Name": "CrossFit SEO",
   "Address": "762 W. Union Street Athens US 45701 ",
   "Latitude": 39.3220879,
   "Longitude": -82.1349398,
   "Website": "http://www.crossfitseo.com"
 },
 {
   "Name": "CrossFit Somerville",
   "Address": "35 Prospect St Somerville US 2143 ",
   "Latitude": 42.3782956,
   "Longitude": -71.0948563,
   "Website": "http://www.crossfitsomerville.com"
 },
 {
   "Name": "CrossFit Enduro",
   "Address": "602 Serangoon Road Singapore SG 218212 ",
   "Latitude": 1.3153126,
   "Longitude": 103.8585093,
   "Website": "http://www.crossfitenduro.com/"
 },
 {
   "Name": "CrossFit Clearwater",
   "Address": "1281 South Lincoln Ave. Clearwater US 33756 ",
   "Latitude": 27.9510395,
   "Longitude": -82.785123,
   "Website": "http://cfclearwater.com/"
 },
 {
   "Name": "CrossFit Greater Brislington",
   "Address": "12 Dixon Business Centre, Dixon Rd, Unit 12 Brislington GB BS4 5QW ",
   "Latitude": 51.4346179,
   "Longitude": -2.535584,
   "Website": "http://www.crossfitgreaterbrislington.com"
 },
 {
   "Name": "CrossFit Believe",
   "Address": "303-A Hawthorne Blvd Warrensburg US 64093 ",
   "Latitude": 38.784391,
   "Longitude": -93.7369634,
   "Website": "http://www.crossfitbelieve.com/"
 },
 {
   "Name": "CrossFit MisFits",
   "Address": "9205 Oak Creek Woodway Woodway US 76712 ",
   "Latitude": 31.4948442,
   "Longitude": -97.2202785,
   "Website": "http://www.cfmisfits.com/"
 },
 {
   "Name": "CrossFit AKA",
   "Address": "Piri Reisplein 1 Amsterdam NL 1057 KH ",
   "Latitude": 52.3664509,
   "Longitude": 4.8604783,
   "Website": "http://www.crossfitaka.nl"
 },
 {
   "Name": "Cyn Gym CrossFit",
   "Address": "9350 7th Street Unit #E Rancho Cucamonga US 91730 ",
   "Latitude": 34.0899988,
   "Longitude": -117.6016295,
   "Website": "http://www.cyngymcrossfit.com/"
 },
 {
   "Name": "Holy City CrossFit",
   "Address": "80 1/2 Society St. Charleston US 29401 ",
   "Latitude": 32.785363,
   "Longitude": -79.9279844,
   "Website": "https://holycitycrossfit.com/"
 },
 {
   "Name": "CrossFit Ad Flexum",
   "Address": "Szellorozsa 8 Mosonmagyarovar HU 9200 ",
   "Latitude": 47.8795449,
   "Longitude": 17.2854006,
   "Website": "http://crossfitadflexum.hu"
 },
 {
   "Name": "Brute Fitness CrossFit",
   "Address": "117 North 3rd St Gadsden US 35901 ",
   "Latitude": 34.0129138,
   "Longitude": -86.0013739,
   "Website": "http://www.brutefitness.com/"
 },
 {
   "Name": "Mobilis CrossFit",
   "Address": "Van Leijenberghlaan 10 Amsterdam NL 1082 GM ",
   "Latitude": 52.3324246,
   "Longitude": 4.8788371,
   "Website": "http://www.mobiliscrossfit.nl/"
 },
 {
   "Name": "CrossFit Xtra Mile",
   "Address": "1111 Horan Dr, Suite F Fenton US 63026 ",
   "Latitude": 38.5389913,
   "Longitude": -90.4669943,
   "Website": "https://www.xm.fitness/crossfit/"
 },
 {
   "Name": "CrossFit Helix",
   "Address": "2970 W. 29th St, Unit 16 Greeley US 80631 ",
   "Latitude": 40.3902172,
   "Longitude": -104.7260033,
   "Website": "http://crossfithelix.com/"
 },
 {
   "Name": "CrossFit IronSpider",
   "Address": "45 Congress St, Dock 19/20 Salem US 1970 ",
   "Latitude": 42.5182039,
   "Longitude": -70.8876428,
   "Website": "http://www.crossfitironspider.com/"
 },
 {
   "Name": "CrossFit Beacon",
   "Address": "341 Marginal Way Portland US 4101 ",
   "Latitude": 43.6688107,
   "Longitude": -70.2577029,
   "Website": "http://www.crossfitbeacon.com/"
 },
 {
   "Name": "DFC CrossFit",
   "Address": "40 Rockbridge Rd., Suite 500 Lilburn US 30047 ",
   "Latitude": 33.8775769,
   "Longitude": -84.1506745,
   "Website": "http://www.dfccrossfit.com/"
 },
 {
   "Name": "CrossFit KGB",
   "Address": "119 York Street Building 3, Unit 3 Kennebunk US 4043 ",
   "Latitude": 43.3845306,
   "Longitude": -70.54399,
   "Website": "http://www.crossfitkgb.com"
 },
 {
   "Name": "CrossFit Quispamsis",
   "Address": "47 Clark Rd Quispamsis CA E2E 4J5 ",
   "Latitude": 45.3977376,
   "Longitude": -65.9837276,
   "Website": "http://crossfitquispamsis.com/"
 },
 {
   "Name": "CrossFit Variance",
   "Address": "54 W Dane St Unit M Beverly US 1915 ",
   "Latitude": 42.5514935,
   "Longitude": -70.8847368,
   "Website": "http://www.crossfitvariance.com/"
 },
 {
   "Name": "CrossFit Rapture",
   "Address": "283 Orinoco Drive Brightwaters US 11718 ",
   "Latitude": 40.7187719,
   "Longitude": -73.2707186,
   "Website": "http://crossfitrapture.com/"
 },
 {
   "Name": "CrossFit Pace Performance",
   "Address": "296 Farmingdale Road Route 109 Farmingdale US 11735 ",
   "Latitude": 40.7185874,
   "Longitude": -73.411971,
   "Website": "http://paceperformance.net/"
 },
 {
   "Name": "CrossFit Tundra",
   "Address": "623 S 48th St Grand Forks US 58201 ",
   "Latitude": 47.9177639,
   "Longitude": -97.0999715,
   "Website": "http://www.crossfittundra.com/"
 },
 {
   "Name": "CrossFit Hyannis",
   "Address": "15 Plant Rd. Hyannis US 2601 ",
   "Latitude": 41.6716695,
   "Longitude": -70.2941829,
   "Website": "http://www.crossfithyannis.com/"
 },
 {
   "Name": "Ballston CrossFit",
   "Address": "1110 North Glebe Rd Arlington US 22201 ",
   "Latitude": 38.8838454,
   "Longitude": -77.1173248,
   "Website": "http://www.ballstoncrossfit.com/"
 },
 {
   "Name": "CrossFit Nola 504",
   "Address": "3610 Toulouse St. New Orleans US 70119 ",
   "Latitude": 29.9751951,
   "Longitude": -90.0930034,
   "Website": "http://www.crossfitnola.com/crossfit-nola-504---540-n-cortez---midcity.html"
 },
 {
   "Name": "Lane 5 CrossFit",
   "Address": "855 Ferry Street Eugene US 97401 ",
   "Latitude": 44.0505701,
   "Longitude": -123.0846409,
   "Website": "http://lane5crossfit.com/"
 },
 {
   "Name": "Koda CrossFit",
   "Address": "228 NW 60th St Oklahoma City US 73118 ",
   "Latitude": 35.5338525,
   "Longitude": -97.5173885,
   "Website": "http://www.kodacrossfit.com"
 },
 {
   "Name": "CrossFit Uncensored",
   "Address": "29910 Ohana Cir Lake Elsinore US 92532 ",
   "Latitude": 33.6847102,
   "Longitude": -117.328282,
   "Website": "http://www.crossfituncensored.com"
 },
 {
   "Name": "CrossFit Harrisburg",
   "Address": "5243 Morehead Rd Concord US 28027 ",
   "Latitude": 35.3414971,
   "Longitude": -80.677806,
   "Website": "http://www.crossfitharrisburg.com/"
 },
 {
   "Name": "CrossFit QDA",
   "Address": "1 Seneca Street Suite 1010 Buffalo US 14203 ",
   "Latitude": 42.8791929,
   "Longitude": -78.8755437,
   "Website": "https://qdathletics.com/"
 },
 {
   "Name": "South Orlando CrossFit",
   "Address": "44 W Iliana Street Orlando US 32806 ",
   "Latitude": 28.5106998,
   "Longitude": -81.3776281,
   "Website": "http://southorlandocrossfit.com/"
 },
 {
   "Name": "CrossFit Urban Energy",
   "Address": "54/3 Jackman Street Southport AU 4215 ",
   "Latitude": -27.9672765,
   "Longitude": 153.4039972,
   "Website": "http://www.urbanenergyblog.com/crossfit/"
 },
 {
   "Name": "336 CrossFit",
   "Address": "3700 North Main Street, Suite 111/112 High Point US 27265 ",
   "Latitude": 36.0103,
   "Longitude": -80.041471,
   "Website": "http://www.336crossfit.com/"
 },
 {
   "Name": "CrossFit Bridge City",
   "Address": "135 Blueberry St Bridge City US 77611 ",
   "Latitude": 30.0312454,
   "Longitude": -93.8294138,
   "Website": "http://www.crossfitbridgecity.com/"
 },
 {
   "Name": "Ellensburg CrossFit",
   "Address": "301 W 2nd Ave Ellensburg US 98926 ",
   "Latitude": 46.9935588,
   "Longitude": -120.5502524,
   "Website": "http://www.ellensburgcrossfit.com/"
 },
 {
   "Name": "Hardbat CrossFit",
   "Address": "1325 Old Coochs Bridge Rd #1 Newark US 19713 ",
   "Latitude": 39.648428,
   "Longitude": -75.7416767,
   "Website": "http://www.hardbatcrossfit.com/"
 },
 {
   "Name": "CrossFit Influence",
   "Address": "708 Walnut Circle Wapella US 61777 ",
   "Latitude": 40.2304676,
   "Longitude": -88.9656591,
   "Website": "http://www.crossfitinfluence.com/"
 },
 {
   "Name": "CrossFit Supernova",
   "Address": "348 Wendel Road Irwin US 15642 ",
   "Latitude": 40.2927242,
   "Longitude": -79.6892703,
   "Website": "http://www.crossfitsupernova.com/"
 },
 {
   "Name": "CrossFit Regeneration",
   "Address": "1833 Plantside Drive Louisville US 40299 ",
   "Latitude": 38.2173792,
   "Longitude": -85.5714211,
   "Website": "http://www.crossfitregeneration.com"
 },
 {
   "Name": "CrossFit Northern Adelaide",
   "Address": "3/11 Wiley Street Elizabeth South AU 5112 ",
   "Latitude": -34.7413707,
   "Longitude": 138.6604793,
   "Website": "http://crossfitna.com.au/"
 },
 {
   "Name": "CrossFit Coogee 2034",
   "Address": "92 Dudley Street Coogee AU 2034 ",
   "Latitude": -33.9247671,
   "Longitude": 151.2549419,
   "Website": "http://www.crossfits.com.au/"
 },
 {
   "Name": "CrossFit Warrnambool",
   "Address": "38 Albert St Warrnambool AU 3280 ",
   "Latitude": -38.3705168,
   "Longitude": 142.4593497,
   "Website": "http://www.crossfitwarrnambool.com.au"
 },
 {
   "Name": "Armor CrossFit",
   "Address": "535 Cooper Commerce Drive Apopka US 32703 ",
   "Latitude": 28.6681889,
   "Longitude": -81.5227257,
   "Website": "http://www.armorcrossfit.com/"
 },
 {
   "Name": "CrossFit Central Helsinki",
   "Address": "Energiakatu 3 Helsinki FI 180 ",
   "Latitude": 60.1658318,
   "Longitude": 24.9038592,
   "Website": "http://crossfitcentralhelsinki.com/"
 },
 {
   "Name": "CrossFit DSP",
   "Address": "2509 W Avenue M Temple US 76504 ",
   "Latitude": 31.0913527,
   "Longitude": -97.3728844,
   "Website": "http://www.crossfitdsp.com"
 },
 {
   "Name": "Railroad CrossFit",
   "Address": "351 Fairview Avenue Ste 500 Hudson US 12534 ",
   "Latitude": 42.272329,
   "Longitude": -73.7630019,
   "Website": "http://www.railroad-crossfit.com/"
 },
 {
   "Name": "CrossFit Glendora",
   "Address": "124 S Valencia St., Suites A & B Glendora US 91741-3253 ",
   "Latitude": 34.135239,
   "Longitude": -117.876644,
   "Website": "http://crossfitglendora.com/"
 },
 {
   "Name": "Red X CrossFit",
   "Address": "Winmore Village Shopping Center, Corner of De Villebois Mareuil and Hesketh Road Moreleta Park ZA 10 ",
   "Latitude": -25.8406476,
   "Longitude": 28.2806495,
   "Website": "http://redxcrossfit.com/"
 },
 {
   "Name": "CrossFit DGA",
   "Address": "2001 Marion St Dublin US 31021 ",
   "Latitude": 32.5264829,
   "Longitude": -82.9432633,
   "Website": "http://crossfitdga.com/"
 },
 {
   "Name": "CrossFit Wilsonville",
   "Address": "25589 SW Canyon Creed Rd Wilsonville US 97070 ",
   "Latitude": 45.3349892,
   "Longitude": -122.7579505,
   "Website": "http://www.crossfitwilsonville.com/"
 },
 {
   "Name": "Second Wind CrossFit",
   "Address": "5509 14th Street NW Washington US 20011 ",
   "Latitude": 38.9570821,
   "Longitude": -77.033013,
   "Website": "http://secondwindcrossfit.com/"
 },
 {
   "Name": "CrossFit Stavanger",
   "Address": "Sjohagen 11 Stavanger NO 4016 ",
   "Latitude": 58.9414492,
   "Longitude": 5.7516614,
   "Website": "http://www.crossfitstavanger.no"
 },
 {
   "Name": "CrossFit Invalesco",
   "Address": "22005 Howell Dr New Lenox US 60451 ",
   "Latitude": 41.4887049,
   "Longitude": -87.9292883,
   "Website": "http://crossfitinvalesco.com/"
 },
 {
   "Name": "CrossFit 506",
   "Address": "Calle Mangos Escazu CR  ",
   "Latitude": 9.9514121,
   "Longitude": -84.1560839,
   "Website": "http://crossfit506.com/"
 },
 {
   "Name": "CrossFit SA1",
   "Address": "Unit 17, SA1 Business Park Langdon Road Swansea GB SA1 8QY ",
   "Latitude": 51.6209325,
   "Longitude": -3.90501,
   "Website": "http://www.crossfit-sa1.com/"
 },
 {
   "Name": "CrossFit Freehold",
   "Address": "54 West Main Street Freehold US 7728 ",
   "Latitude": 40.2586573,
   "Longitude": -74.2759537,
   "Website": "http://crossfitfreehold.com/"
 },
 {
   "Name": "CrossFit Hermitage",
   "Address": "3524 Central Pike, Suite 302 Hermitage US 37076 ",
   "Latitude": 36.1842045,
   "Longitude": -86.630725,
   "Website": "http://www.crossfithermitage.com/"
 },
 {
   "Name": "RFS CrossFit",
   "Address": "5410 McIntosh Rd. Sarasota US 34233 ",
   "Latitude": 27.2749357,
   "Longitude": -82.4813887,
   "Website": "http://realfitnesssarasota.com/"
 },
 {
   "Name": "CrossFit Downtown Miami",
   "Address": "1311 NE 1st Ave. Miami US 33132 ",
   "Latitude": 25.7872132,
   "Longitude": -80.1922654,
   "Website": "http://crossfitdowntownmiami.com/"
 },
 {
   "Name": "CrossFit Sodermalm",
   "Address": "Tjarhovsgatan 21A Stockholm SE 11421 ",
   "Latitude": 59.3160173,
   "Longitude": 18.0821169,
   "Website": "http://www.crossfitsodermalm.se"
 },
 {
   "Name": "STADD CrossFit",
   "Address": "500 av St-Jean-Baptiste, Suite 20 Quebec CA G2E 5R9 ",
   "Latitude": 46.7994161,
   "Longitude": -71.3238624,
   "Website": "http://www.staddcrossfit.com/"
 },
 {
   "Name": "CrossFit Downriver",
   "Address": "5903 Allen Rd Allen Park US 48101 ",
   "Latitude": 42.2601193,
   "Longitude": -83.2047097,
   "Website": "http://www.crossfitdownriver.com/"
 },
 {
   "Name": "CrossFit Rosslyn",
   "Address": "1621 N Kent St. R100 Arlington US 22209 ",
   "Latitude": 38.895868,
   "Longitude": -77.069253,
   "Website": "http://www.crossfitrosslyn.com/"
 },
 {
   "Name": "InnerFight CrossFit DXB",
   "Address": "Olivara Residences & Park, Hessa St. Dubai Studio City AE 0 ",
   "Latitude": 25.0301018,
   "Longitude": 55.2388632,
   "Website": "http://www.innerfight.com/crossfit/"
 },
 {
   "Name": "CrossFit Maryland Heights",
   "Address": "2302 Centerline Industrial Dr. St. Louis US 63146 ",
   "Latitude": 38.7033636,
   "Longitude": -90.4339514,
   "Website": "http://crossfitmarylandheights.wordpress.com/"
 },
 {
   "Name": "CrossFit Camberley",
   "Address": "Unit 1 White Hart Estate, London Road Blackwater GB GU17 9AE ",
   "Latitude": 51.3326324,
   "Longitude": -0.7785072,
   "Website": "http://www.crossfitcamberley.com"
 },
 {
   "Name": "CrossFit St. Louis",
   "Address": "567 Hanley Industrial Ct. Brentwood US 63144 ",
   "Latitude": 38.6215991,
   "Longitude": -90.3403492,
   "Website": "http://www.crossfitstlouis.com/"
 },
 {
   "Name": "CrossFit Bologna by Nativa",
   "Address": "Via dell'Idraulico 4b Bologna IT 40138 ",
   "Latitude": 44.501207,
   "Longitude": 11.4093287,
   "Website": "http://www.crossfitbolognabynativa.com/"
 },
 {
   "Name": "CrossFit Cypher",
   "Address": "1401 Marina Way South, Suite 290 Richmond US 94804 ",
   "Latitude": 37.9128403,
   "Longitude": -122.3565665,
   "Website": "http://crossfitcypher.com/"
 },
 {
   "Name": "Mt. Tabor CrossFit",
   "Address": "8028 NE Glisan Street Portland US 97213 ",
   "Latitude": 45.5261768,
   "Longitude": -122.5807031,
   "Website": "http://www.mttaborcrossfit.com"
 },
 {
   "Name": "NorthEast CrossFit",
   "Address": "271 E. Main St. Eastchester US 10709 ",
   "Latitude": 40.9546405,
   "Longitude": -73.8095574,
   "Website": "http://northeastcrossfit.com/"
 },
 {
   "Name": "CrossFit Exe",
   "Address": "Unit 3 Tan Lane Exeter GB EX2 8EG ",
   "Latitude": 50.7130294,
   "Longitude": -3.5314834,
   "Website": "http://www.crossfitexe.com"
 },
 {
   "Name": "Blue Lake CrossFit",
   "Address": "20 Harrald Street Mount Gambier AU 5290 ",
   "Latitude": -37.8343488,
   "Longitude": 140.7870289,
   "Website": "http://www.bluelakecrossfit.com.au/"
 },
 {
   "Name": "CrossFit OverTake",
   "Address": "705 Riley Fuzzell Rd Spring US 77373 ",
   "Latitude": 30.0900952,
   "Longitude": -95.4107065,
   "Website": "http://www.crossfitovertake.com/"
 },
 {
   "Name": "CrossFit Old South",
   "Address": "194 Theta Pike Columbia US 38401 ",
   "Latitude": 35.6329355,
   "Longitude": -87.0281565,
   "Website": "https://crossfitoldsouth.com/index2.asp"
 },
 {
   "Name": "CrossFit Nitro",
   "Address": "7/89 Jijaws Street Sumner AU 4074 ",
   "Latitude": -27.5598294,
   "Longitude": 152.9369713,
   "Website": "http://www.crossfitnitro.com.au/"
 },
 {
   "Name": "CrossFit 110",
   "Address": "290 Littleton Rd, Suite 6 Chelmsford US 1824 ",
   "Latitude": 42.5819776,
   "Longitude": -71.3881083,
   "Website": "http://crossfit110.com/"
 },
 {
   "Name": "The CrossFit Place",
   "Address": "Unit 8B, M & G Business Park Lon Groes Gaerwen GB LL60 6HR ",
   "Latitude": 53.2225883,
   "Longitude": -4.2828748,
   "Website": "http://www.thecrossfitplace.co.uk/"
 },
 {
   "Name": "CrossFit Ignition",
   "Address": "6122 W. Pierson Road, Suite 10B Flushing US 48433 ",
   "Latitude": 43.0600112,
   "Longitude": -83.8671537,
   "Website": "http://www.crossfit-ignition.com"
 },
 {
   "Name": "CrossFit Amersfoort",
   "Address": "Computerweg 24 Amersfoort NL 3821 AB ",
   "Latitude": 52.1770353,
   "Longitude": 5.4154003,
   "Website": "http://www.crossfitamersfoort.nl/"
 },
 {
   "Name": "CrossFit Duketown",
   "Address": "Rietwaard 11 Hertogenbosch NL 5236 WC ",
   "Latitude": 51.7321017,
   "Longitude": 5.3145637,
   "Website": "http://www.crossfit-duketown.nl"
 },
 {
   "Name": "CrossFit Zuid",
   "Address": "Scherpdeel 20 Roosendaal NL 4703 RJ ",
   "Latitude": 51.541813,
   "Longitude": 4.4470689,
   "Website": "http://www.crossfitzuid.com"
 },
 {
   "Name": "CrossFit Sua Sponte Raleigh",
   "Address": "6675 Falls of the Neuse Road Raleigh US 27615 ",
   "Latitude": 35.8747469,
   "Longitude": -78.6242879,
   "Website": "http://crossfitsuasponte.com/"
 },
 {
   "Name": "CrossFit Caves Beach",
   "Address": "15 Strathmore Rd Caves Beach AU 2281 ",
   "Latitude": -33.0994436,
   "Longitude": 151.6384421,
   "Website": "http://www.crossfitcavesbeach.com/"
 },
 {
   "Name": "Jones-N-4 CrossFit",
   "Address": "3131 Thousand Oaks San Antonio US 78247 ",
   "Latitude": 29.5730886,
   "Longitude": -98.436911,
   "Website": "http://jonesn4crossfit.com/"
 },
 {
   "Name": "Seaside CrossFit",
   "Address": "6 Little Brooke Rd. Wareham US 2576 ",
   "Latitude": 41.7829657,
   "Longitude": -70.7541095,
   "Website": "http://www.seasidecrossfit.com/"
 },
 {
   "Name": "CrossFit Continuum",
   "Address": "5975 N Academy Blvd, Suite 116 Colorado Springs US 80918 ",
   "Latitude": 38.9177904,
   "Longitude": -104.7854568,
   "Website": "http://www.crossfitcontinuum.com/"
 },
 {
   "Name": "CrossFit Nice",
   "Address": "3 Rue De Sospel Nice FR 6300 ",
   "Latitude": 43.7099316,
   "Longitude": 7.2919695,
   "Website": "http://www.crossfit-nice.com/en/"
 },
 {
   "Name": "CrossFit Weinstrasse",
   "Address": "Im Altenschemel 8 Neustadt DE 67435 ",
   "Latitude": 49.3363825,
   "Longitude": 8.2153334,
   "Website": "http://www.crossfitweinstrasse.de"
 },
 {
   "Name": "CrossFit Geraldton",
   "Address": "7 St Angelo St, Webberton Geraldton AU 6530 ",
   "Latitude": -28.7490303,
   "Longitude": 114.6353881,
   "Website": "http://www.crossfitgeraldton.com.au/"
 },
 {
   "Name": "CrossFit RepScheme",
   "Address": "9360 Penfield Ave Chatsworth US 91311 ",
   "Latitude": 34.2408698,
   "Longitude": -118.5691144,
   "Website": "http://crossfitrepscheme.com/"
 },
 {
   "Name": "CrossFit 360Vida",
   "Address": "Unit 5, Valley View Centre Sandton ZA 2055 ",
   "Latitude": -26.1075663,
   "Longitude": 28.0567007,
   "Website": "http://www.crossfit360vida.com/"
 },
 {
   "Name": "CrossFit Worthy",
   "Address": "3711 S. Isabella Rd Mount Pleasant US 48858 ",
   "Latitude": 43.5896578,
   "Longitude": -84.7470219,
   "Website": "http://crossfitworthy.com/"
 },
 {
   "Name": "Great Oaks CrossFit",
   "Address": "251 Great Oaks Trail Wadsworth US 44281 ",
   "Latitude": 41.0489949,
   "Longitude": -81.7341873,
   "Website": "http://advancedperformancecrossfit.com/"
 },
 {
   "Name": "Four Barrel CrossFit",
   "Address": "322 Mt. Tabor Rd. New Albany US 47150 ",
   "Latitude": 38.331737,
   "Longitude": -85.8308535,
   "Website": "http://fourbarrelcrossfit.com/"
 },
 {
   "Name": "CrossFit Reality",
   "Address": "2445 N. Palm Drive, Unit 105 Signal Hill US 90755 ",
   "Latitude": 33.802022,
   "Longitude": -118.15787,
   "Website": "http://www.crossfitreality.com/"
 },
 {
   "Name": "CrossFit Invoke",
   "Address": "1701 S. Saunders St. Raleigh US 27604 ",
   "Latitude": 35.7577859,
   "Longitude": -78.6487015,
   "Website": "http://crossfitinvoke.com/"
 },
 {
   "Name": "CrossFit Magnitude",
   "Address": "201 Oak Street Unit 11 Pembroke US 2359 ",
   "Latitude": 42.1020355,
   "Longitude": -70.7640609,
   "Website": "http://crossfitmagnitude.com"
 },
 {
   "Name": "CrossFit Muscle Beach",
   "Address": "1 Snooze Lane Seven Mile Beach Grand Cayman KY 33122 ",
   "Latitude": 19.3104928,
   "Longitude": -81.3852181,
   "Website": "http://www.crossfitmusclebeach.ky/"
 },
 {
   "Name": "CrossFit Golden",
   "Address": "720 Corporate Circle Unit P Golden US 80401 ",
   "Latitude": 39.7192031,
   "Longitude": -105.1939827,
   "Website": "http://www.crossfitgolden.com"
 },
 {
   "Name": "CrossFit Graz",
   "Address": "Puchstrasse 17 Graz AT 8020 ",
   "Latitude": 47.0512665,
   "Longitude": 15.4339171,
   "Website": "http://www.crossfitgraz.at"
 },
 {
   "Name": "CrossFit Gota Lyckholms",
   "Address": "Skårs led 3 Göteborg SE 41263 ",
   "Latitude": 57.6872,
   "Longitude": 11.9996318,
   "Website": "http://www.crossfitgota.se/"
 },
 {
   "Name": "CrossFit Stealth",
   "Address": "401 Jersey Ave New Brunswick US 8901 ",
   "Latitude": 40.482887,
   "Longitude": -74.4653394,
   "Website": "https://www.crossfitstealth.fit/"
 },
 {
   "Name": "Kingman CrossFit",
   "Address": "4165 N. Bank Street Kingman US 86409 ",
   "Latitude": 35.2440773,
   "Longitude": -114.0122606,
   "Website": "http://www.kingmancrossfit.com/"
 },
 {
   "Name": "CrossFit City Limits",
   "Address": "5206 Eilers Ave Austin US 78751 ",
   "Latitude": 30.3145684,
   "Longitude": -97.7164974,
   "Website": "http://crossfitcitylimits.com/"
 },
 {
   "Name": "CrossFit Closer",
   "Address": "103 Schneider Road Kanata CA K2K 1Y3 ",
   "Latitude": 45.339635,
   "Longitude": -75.9012044,
   "Website": "http://crossfitcloser.com/"
 },
 {
   "Name": "Copper City CrossFit",
   "Address": "675 S. Montana Street Butte US 59701 ",
   "Latitude": 46.0052775,
   "Longitude": -112.5396343,
   "Website": "http://coppercitycrossfit.com/index.html"
 },
 {
   "Name": "CrossFit Kuopio",
   "Address": "Itkonniemenkatu 29 Kuopio FI 70 500 ",
   "Latitude": 62.8976768,
   "Longitude": 27.7114524,
   "Website": "http://crossfitkuopio.com"
 },
 {
   "Name": "CrossFit Raynham",
   "Address": "1470 Route 44, Unit 26A Raynham US 2767 ",
   "Latitude": 41.9049935,
   "Longitude": -71.0107748,
   "Website": "http://www.cfraynham.com"
 },
 {
   "Name": "CrossFit Kendall",
   "Address": "14251 Sw 120 St #101 Miami US 33186 ",
   "Latitude": 25.6565518,
   "Longitude": -80.4256189,
   "Website": "http://cfkendall.com/"
 },
 {
   "Name": "CrossFit 121",
   "Address": "69A Taunton Drive Cheltenham AU 3192 ",
   "Latitude": -37.9707643,
   "Longitude": 145.0851445,
   "Website": "http://www.crossfit121.com"
 },
 {
   "Name": "CrossFit O'Fallon",
   "Address": "2001 Trade Center Drive St. Peters US 63376 ",
   "Latitude": 38.7993777,
   "Longitude": -90.664742,
   "Website": "http://www.crossfitofallonmo.com/"
 },
 {
   "Name": "CrossFit Fairport",
   "Address": "1000 Turk Hill Rd #140 Fairport US 14450 ",
   "Latitude": 43.0945942,
   "Longitude": -77.429806,
   "Website": "http://www.crossfitfairport.com"
 },
 {
   "Name": "CrossFit Myrtle Beach",
   "Address": "3241 Waccamaw Blvd Myrtle Beach US 29579 ",
   "Latitude": 33.7172561,
   "Longitude": -78.9278329,
   "Website": "http://Werolldeep.com"
 },
 {
   "Name": "CrossFit DF",
   "Address": "1741 Dobbs Road, #16 St. Augustine US 32084 ",
   "Latitude": 29.8691631,
   "Longitude": -81.3352528,
   "Website": "http://www.drivfitness.com/"
 },
 {
   "Name": "CrossFit Hydro",
   "Address": "6177 Center Street, Suite 101 Omaha US 68106 ",
   "Latitude": 41.236902,
   "Longitude": -96.00798,
   "Website": "http://www.crossfithydro.blogspot.com/"
 },
 {
   "Name": "CrossFit Armidale",
   "Address": "4/225 Mann Street Armidale AU 2350 ",
   "Latitude": -30.5160863,
   "Longitude": 151.6493191,
   "Website": "http://crossfitarmidale.com.au/"
 },
 {
   "Name": "CrossFit A-Game",
   "Address": "609 East Bay Ave, Units 6&7 Manahawkin US 8050 ",
   "Latitude": 39.6846146,
   "Longitude": -74.2396669,
   "Website": "http://crossfita-game.com/"
 },
 {
   "Name": "CrossFit Tigers Den",
   "Address": "119 Pittsburg Street Dallas US 75207 ",
   "Latitude": 32.7861472,
   "Longitude": -96.8206169,
   "Website": "http://tigersdencrossfit.com"
 },
 {
   "Name": "Big Mountain CrossFit",
   "Address": "5785 Highway 93 S Whitefish US 59937 ",
   "Latitude": 48.4822555,
   "Longitude": -114.5145716,
   "Website": "http://www.bigmountaincrossfit.com"
 },
 {
   "Name": "CrossFit Upper East Side",
   "Address": "1623 York Avenue New York US 10028 ",
   "Latitude": 40.7757062,
   "Longitude": -73.9475463,
   "Website": "http://www.evfperformance.com/"
 },
 {
   "Name": "Concept Ekilibre CrossFit",
   "Address": "405 Rue Courcelette Sherbrooke CA J1H 3X4 ",
   "Latitude": 45.3949132,
   "Longitude": -71.898913,
   "Website": "http://www.conceptekilibre.com/"
 },
 {
   "Name": "CrossFit Fortis",
   "Address": "245 Vanguard Dr Ottawa CA K4A 3V6 ",
   "Latitude": 45.4568139,
   "Longitude": -75.4904724,
   "Website": "http://crossfitfortis.ca/"
 },
 {
   "Name": "CrossFit Boro",
   "Address": "1263 S&S Railroad Bed Trail Statesboro US 30458 ",
   "Latitude": 32.4210214,
   "Longitude": -81.7472307,
   "Website": "http://www.crossfitboro.com/"
 },
 {
   "Name": "College Hill CrossFit",
   "Address": "1208 Oakland Avenue Greensboro US 27403 ",
   "Latitude": 36.063547,
   "Longitude": -79.8161263,
   "Website": "http://www.collegehillcrossfit.com/"
 },
 {
   "Name": "CrossFit Mitchelton",
   "Address": "20 Prospect Rd Mitchelton Brisbane AU 4053 ",
   "Latitude": -27.4148648,
   "Longitude": 152.9793716,
   "Website": "http://www.crossfitmitchelton.com.au/"
 },
 {
   "Name": "Solution 1 CrossFit",
   "Address": "8245 Hedge Lane Terr Shawnee US 66227 ",
   "Latitude": 38.9789911,
   "Longitude": -94.8566711,
   "Website": "http://www.solution1crossfit.com/"
 },
 {
   "Name": "CrossFit Gent",
   "Address": "Waterstraat 2C Gent BE 9040 ",
   "Latitude": 51.069674,
   "Longitude": 3.7529268,
   "Website": "http://www.crossfitgent.com/"
 },
 {
   "Name": "CrossFit Tigard",
   "Address": "12100-12120 SW Garden Place Tigard US 97223 ",
   "Latitude": 45.4317336,
   "Longitude": -122.7601534,
   "Website": "http://www.crossfittigard.com/homepage"
 },
 {
   "Name": "CrossFit Lumberton",
   "Address": "565 N LHS Dr, Unit 107 Lumberton US 77657 ",
   "Latitude": 30.2837701,
   "Longitude": -94.2334379,
   "Website": "http://www.crossfitlumberton.com/"
 },
 {
   "Name": "CrossFit Shift",
   "Address": "2902 Sanders Drive Lansing US 48917 ",
   "Latitude": 42.703848,
   "Longitude": -84.6317984,
   "Website": "http://crossfitshift.com/"
 },
 {
   "Name": "Capital CrossFit",
   "Address": "6301A Richmond Highway Alexandria US 22306 ",
   "Latitude": 38.7804597,
   "Longitude": -77.0763679,
   "Website": "https://www.capitalmma.com/capital-crossfit/"
 },
 {
   "Name": "CrossFit Bia 2.0",
   "Address": "6 Simonsburn Rd, Loreny Industrial Estate Kilmarnock GB KA1 5LA ",
   "Latitude": 55.5836418,
   "Longitude": -4.5065812,
   "Website": "http://www.crossfitbia.co.uk/"
 },
 {
   "Name": "CrossFit Natomas",
   "Address": "1215 Striker Avenue, Suite 160 Sacramento US 95834 ",
   "Latitude": 38.6513503,
   "Longitude": -121.4893419,
   "Website": "http://www.crossfitnatomas.com/"
 },
 {
   "Name": "CrossFit BR",
   "Address": "6630 Exchequer Drive, Suite 1 Baton Rouge US 70809 ",
   "Latitude": 30.3832275,
   "Longitude": -91.0495574,
   "Website": "http://crossfitbr.com/"
 },
 {
   "Name": "CrossFit 601",
   "Address": "201 Industrial Cove Ridgeland US 39157 ",
   "Latitude": 32.4218472,
   "Longitude": -90.1412548,
   "Website": "http://www.crossfit601.com/"
 },
 {
   "Name": "CrossFit 51",
   "Address": "11915 East 51st Street Tulsa US 74146 ",
   "Latitude": 36.0906039,
   "Longitude": -95.8438734,
   "Website": "http://www.crossfit51.com/"
 },
 {
   "Name": "CrossFit Pompano Beach",
   "Address": "23 Southeast 22nd Avenue Pompano Beach US 33062 ",
   "Latitude": 26.2306162,
   "Longitude": -80.1020704,
   "Website": "http://crossfithardcorepompanobeach.com/"
 },
 {
   "Name": "Nevermore CrossFit",
   "Address": "1420 Clarkview Rd Baltimore US 21209 ",
   "Latitude": 39.3802506,
   "Longitude": -76.6585075,
   "Website": "http://www.nevermorecrossfit.com/"
 },
 {
   "Name": "CrossFit Asperitas",
   "Address": "208 Ronnie Court Myrtle Beach US 29579 ",
   "Latitude": 33.7619921,
   "Longitude": -78.9608852,
   "Website": "http://www.crossfitasperitas.com/"
 },
 {
   "Name": "CrossFit Endemic",
   "Address": "7039 Bandley Dr. Fountain US 80817 ",
   "Latitude": 38.7307503,
   "Longitude": -104.7352305,
   "Website": "http://crossfitendemic.com/"
 },
 {
   "Name": "CrossFit EBG",
   "Address": "Rooiseheide 7A Schijndel NL 5481 SG ",
   "Latitude": 51.6055613,
   "Longitude": 5.4456294,
   "Website": "https://elitebenefitgym.com/crossfit/"
 },
 {
   "Name": "O'Hare CrossFit",
   "Address": "9100 Belden Ave, Ste A Franklin Park US 60131 ",
   "Latitude": 41.919726,
   "Longitude": -87.8533641,
   "Website": "http://oharecrossfit.com/"
 },
 {
   "Name": "Swamp Rabbit CrossFit",
   "Address": "25 Delano Dr, Unit C Greenville US 29601 ",
   "Latitude": 34.8528071,
   "Longitude": -82.4148847,
   "Website": "http://www.swamprabbitcrossfit.com/"
 },
 {
   "Name": "CrossFit Tuusula",
   "Address": "Isonkivenkuja 2e Tuusula FI 4300 ",
   "Latitude": 60.3809515,
   "Longitude": 25.0297459,
   "Website": "http://crossfittuusula.fi/"
 },
 {
   "Name": "CrossFit Central Lancaster",
   "Address": "Unit 9, Lansil Walk, Caton Road Lancaster GB LA1 3PQ ",
   "Latitude": 54.0634816,
   "Longitude": -2.7909697,
   "Website": "http://crossfitcentrallancaster.com/"
 },
 {
   "Name": "Overflow CrossFit",
   "Address": "52 Fremlin Place Avondale NZ 1026 ",
   "Latitude": -36.8838479,
   "Longitude": 174.6761568,
   "Website": "http://www.zealouscrossfit.com/"
 },
 {
   "Name": "CrossFit Versatile",
   "Address": "1105 Park Terrace Greensboro US 27403 ",
   "Latitude": 36.0630283,
   "Longitude": -79.8399143,
   "Website": "http://www.crossfitversatile.com/"
 },
 {
   "Name": "CrossFit Anchorage",
   "Address": "620 E 57th Place Units B, C, D Anchorage US 99518 ",
   "Latitude": 61.1685959,
   "Longitude": -149.8704313,
   "Website": "http://www.crossfitanchorage.com/"
 },
 {
   "Name": "CrossFit ISO",
   "Address": "4125 Old Denton Rd Carrollton US 75010 ",
   "Latitude": 33.0227622,
   "Longitude": -96.9169723,
   "Website": "https://crossfitiso.com/"
 },
 {
   "Name": "CrossFit Noble Arms",
   "Address": "1/59 Reibelt Dr Caboolture AU 4510 ",
   "Latitude": -27.0554309,
   "Longitude": 152.9537564,
   "Website": "http://www.crossfit4504.com.au/"
 },
 {
   "Name": "CrossFit Te Rapa",
   "Address": "593 Te Rapa Rd. Hamilton NZ 3200 ",
   "Latitude": -37.7573765,
   "Longitude": 175.2453006,
   "Website": "http://www.crossfitterapa.com"
 },
 {
   "Name": "Rio City CrossFit",
   "Address": "6430 Freeport Blvd. #3 Sacramento US 95822 ",
   "Latitude": 38.5093492,
   "Longitude": -121.5038659,
   "Website": "http://riocitycrossfit.com/"
 },
 {
   "Name": "Blitz CrossFit",
   "Address": "16 Station Yard Twickenham GB TW1 4LJ ",
   "Latitude": 51.4489074,
   "Longitude": -0.3318701,
   "Website": "http://blitzcrossfit.com/"
 },
 {
   "Name": "CrossFit Sheffield",
   "Address": "Unit H 19, Prospect Rd Sheaf Bank Business Park Sheffield GB S2 3EN ",
   "Latitude": 53.3632737,
   "Longitude": -1.4700572,
   "Website": "http://www.crossfitsheffield.co.uk"
 },
 {
   "Name": "CrossFit Cumbria",
   "Address": "17/18 Skirsgill business park Penrith GB  ",
   "Latitude": 54.6561219,
   "Longitude": -2.7585007,
   "Website": "http://www.crossfit-cumbria.com/"
 },
 {
   "Name": "CrossFit Diehard",
   "Address": "810 Fentress, Suite 120 Daytona Beach US 32117 ",
   "Latitude": 29.2143189,
   "Longitude": -81.0818392,
   "Website": "http://crossfitdiehard.com/"
 },
 {
   "Name": "Auburn CrossFit",
   "Address": "890 High Street Auburn US 95603 ",
   "Latitude": 38.901169,
   "Longitude": -121.069199,
   "Website": "http://www.auburncrossfit.com/"
 },
 {
   "Name": "CrossFit Addison",
   "Address": "4500 Ratliff Lane, Suite 104 Addison US 75001 ",
   "Latitude": 32.9701856,
   "Longitude": -96.8324288,
   "Website": "http://crossfitaddison.com"
 },
 {
   "Name": "CrossFit Loomis",
   "Address": "5930 Keys Ct., Ste. B Loomis US 95650 ",
   "Latitude": 38.8309096,
   "Longitude": -121.1931162,
   "Website": "http://crossfitloomis.com/"
 },
 {
   "Name": "West Whittier CrossFit",
   "Address": "8044 Westman Ave. Whittier US 90606 ",
   "Latitude": 33.9693807,
   "Longitude": -118.0660275,
   "Website": "http://crossfitwestwhittier.com/"
 },
 {
   "Name": "Freezing Hot CrossFit",
   "Address": "2/130 Bulls Garden Rd Gateshead AU 2290 ",
   "Latitude": -32.9872378,
   "Longitude": 151.6970676,
   "Website": "https://www.freezinghotcrossfit.com/"
 },
 {
   "Name": "CrossFit Rowlett",
   "Address": "4620 Industrial Drive Rowlett US 75088 ",
   "Latitude": 32.9062607,
   "Longitude": -96.5583626,
   "Website": "http://www.crossfitrowlett.com/"
 },
 {
   "Name": "CrossFit Breaking Boundaries",
   "Address": "700 Holcomb Bridge Rd Roswell US 30076 ",
   "Latitude": 34.0266899,
   "Longitude": -84.3255673,
   "Website": "http://www.crossfitbreakingboundaries.com/"
 },
 {
   "Name": "CrossFit RedZone",
   "Address": "3 Simm Lane, Unit 3A Newtown US 6470 ",
   "Latitude": 41.3913943,
   "Longitude": -73.2883761,
   "Website": "http://crossfitredzone.com/"
 },
 {
   "Name": "CrossFit Queenstown",
   "Address": "8 Industrial Place Queenstown NZ 9300 ",
   "Latitude": -45.0180209,
   "Longitude": 168.6624561,
   "Website": "http://www.crossfitqueenstown.co.nz/"
 },
 {
   "Name": "Carlsbad CrossFit",
   "Address": "6353 El Camino Real, Suites F & G Carlsbad US 92009 ",
   "Latitude": 35.4890239,
   "Longitude": -120.6690965,
   "Website": "http://www.carlsbadcrossfit.com/"
 },
 {
   "Name": "CrossFit Never Stop",
   "Address": "Via Piazzon 27 Creazzo IT 36051 ",
   "Latitude": 45.5310903,
   "Longitude": 11.4994317,
   "Website": "http://www.crossfitneverstop.it/"
 },
 {
   "Name": "CrossFit Fate",
   "Address": "48845 West Road Wixom US 48393 ",
   "Latitude": 42.5068385,
   "Longitude": -83.5332522,
   "Website": "http://www.crossfitfate.com/"
 },
 {
   "Name": "CrossFit Main Line - Ardmore",
   "Address": "10 E Athens Avenue Ardmore US 19003 ",
   "Latitude": 40.0060614,
   "Longitude": -75.2926554,
   "Website": "http://crossfitmainline.com/"
 },
 {
   "Name": "CrossFit 604",
   "Address": "124 East Cordova Street Vancouver CA V6A 1K9 ",
   "Latitude": 49.2820548,
   "Longitude": -123.1016535,
   "Website": "http://crossfit604.com/"
 },
 {
   "Name": "CrossFit Helsingborg",
   "Address": "Garnisonsgatan 10 Helsingborg SE 25466 ",
   "Latitude": 56.0718543,
   "Longitude": 12.7252745,
   "Website": "http://crossfithelsingborg.com/"
 },
 {
   "Name": "CrossFit Derry",
   "Address": "14 Pennyburn industrial estate Derry GB BT48 0LU ",
   "Latitude": 55.0133916,
   "Longitude": -7.3236238,
   "Website": "http://www.crossfitderry.com/"
 },
 {
   "Name": "CrossFit Prowess",
   "Address": "40 Mead St. Unit C Seekonk US 2771 ",
   "Latitude": 41.7911199,
   "Longitude": -71.326983,
   "Website": "http://www.crossfitprowess.com/"
 },
 {
   "Name": "Outerbridge CrossFit",
   "Address": "101 Ellis Street, Suite E Staten Island US 10307 ",
   "Latitude": 40.5172048,
   "Longitude": -74.2426472,
   "Website": "http://ultimateimpacttraining.com/outerbridge-crossfit/"
 },
 {
   "Name": "CrossFit Oulu",
   "Address": "Alasintie 3-7 Oulu FI 90400 ",
   "Latitude": 64.9961652,
   "Longitude": 25.4676902,
   "Website": "http://crossfitoulu.com/"
 },
 {
   "Name": "CrossFit Västkusten",
   "Address": "Kabelvägen 4 Mölnlycke SE 43533 ",
   "Latitude": 57.6679084,
   "Longitude": 12.1144063,
   "Website": "http://crossfitvastkusten.se/"
 },
 {
   "Name": "Precision CrossFit",
   "Address": "28710 Canwood St. Unit #105 Agoura Hills US 91301 ",
   "Latitude": 34.1449965,
   "Longitude": -118.7509354,
   "Website": "http://precisioncrossfit.net/"
 },
 {
   "Name": "CrossFit Aiken",
   "Address": "14 Enterprise Drive, Suite 100 Aiken US 29803 ",
   "Latitude": 33.5604168,
   "Longitude": -81.7195533,
   "Website": "http://www.crossfit-aiken.com/"
 },
 {
   "Name": "CrossFit Merrimack",
   "Address": "1100 Gorham Street Lowell US 1852 ",
   "Latitude": 42.6261793,
   "Longitude": -71.3070862,
   "Website": "http://www.crossfitmerrimack.com/"
 },
 {
   "Name": "CrossFit Warehouse",
   "Address": "5901 W 115th St. Alsip US 60803 ",
   "Latitude": 41.6828511,
   "Longitude": -87.7666035,
   "Website": "http://www.crossfitwarehouse.net/"
 },
 {
   "Name": "CrossFit Tea Gardens",
   "Address": "2/38 Wanya Road Tea Gardens AU 2324 ",
   "Latitude": -32.6471149,
   "Longitude": 152.142715,
   "Website": "http://www.crossfitteagardens.com.au/"
 },
 {
   "Name": "CrossFit Loviisa",
   "Address": "Seppäläntie 47 Loviisa FI 7900 ",
   "Latitude": 60.4513633,
   "Longitude": 26.2216363,
   "Website": "http://crossfitloviisa.com/"
 },
 {
   "Name": "Neighborhood CrossFit",
   "Address": "114 14th Street Ramona US 92065 ",
   "Latitude": 33.0402388,
   "Longitude": -116.8752981,
   "Website": "http://www.neighborhoodcrossfit.net/index.html"
 },
 {
   "Name": "CrossFit 27",
   "Address": "calle Galicia, c.c.Cosmos, planta baja, Torviscas Alto Adeje ES 38660 ",
   "Latitude": 28.0825067,
   "Longitude": -16.7357846,
   "Website": "http://www.crossfit27.com/"
 },
 {
   "Name": "CrossFit Manitowoc",
   "Address": "315 North 8th Street Manitowoc US 54220 ",
   "Latitude": 44.0951736,
   "Longitude": -87.6575652,
   "Website": "http://crossfitmanitowoc.com"
 },
 {
   "Name": "Anchor CrossFit",
   "Address": "12433 E 104th Avenue, Unit 103 Commerce City US 80022 ",
   "Latitude": 39.886908,
   "Longitude": -104.8428422,
   "Website": "http://anchorcrossfit.com/"
 },
 {
   "Name": "CrossFit New Beginning",
   "Address": "7/9 Salisbury Road Castle Hill, Sydney AU 2154 ",
   "Latitude": -33.7296593,
   "Longitude": 150.9773505,
   "Website": "http://www.crossfitnewbeginning.com.au/"
 },
 {
   "Name": "CrossFit RAZE",
   "Address": "3410 County Road 6 E, Unit 1 Elkhart US 46514 ",
   "Latitude": 41.724457,
   "Longitude": -85.924713,
   "Website": "http://www.crossfitraze.com/"
 },
 {
   "Name": "CrossFit West Nashville",
   "Address": "7103 Highway 70 South Nashville US 37221 ",
   "Latitude": 36.0736127,
   "Longitude": -86.9217758,
   "Website": "http://crossfitwestnashville.com/"
 },
 {
   "Name": "CrossFit Kent Island",
   "Address": "1625 Sonny Schulz Blvd, Suite D Stevensville US 21666 ",
   "Latitude": 38.9541372,
   "Longitude": -76.3524286,
   "Website": "http://www.crossfitkentisland.com"
 },
 {
   "Name": "CrossFit Mettle",
   "Address": "4903 Golden Quail San Antonio US 78240 ",
   "Latitude": 29.5316126,
   "Longitude": -98.5855377,
   "Website": "http://crossfitmettle.com/"
 },
 {
   "Name": "CrossFit Burleson",
   "Address": "317 SW Wilshire Blvd, Suite 100 Burleson US 76028 ",
   "Latitude": 32.5400347,
   "Longitude": -97.3306597,
   "Website": "http://www.crossfitburleson.com/"
 },
 {
   "Name": "CrossFit 061",
   "Address": "12634 Industrial Park Drive Granger US 46530 ",
   "Latitude": 41.7471099,
   "Longitude": -86.1132168,
   "Website": "http://www.crossfit061.com/"
 },
 {
   "Name": "JOMO CrossFit",
   "Address": "3231 Enterprise Ave Joplin US 64801 ",
   "Latitude": 37.1212782,
   "Longitude": -94.4716008,
   "Website": "http://www.jomocrossfit.com"
 },
 {
   "Name": "CrossFit Steam",
   "Address": "1 Madison St. East Rutherford US 7073 ",
   "Latitude": 40.8463666,
   "Longitude": -74.1194998,
   "Website": "http://crossfitsteam.com/"
 },
 {
   "Name": "CrossFit Zug",
   "Address": "Bösch 41 Hünenberg CH 6331 ",
   "Latitude": 47.1620717,
   "Longitude": 8.43628,
   "Website": "http://www.crossfitzug.ch/"
 },
 {
   "Name": "Havasu CrossFit",
   "Address": "2876 Sweetwater Ave Lake Havasu US 86406 ",
   "Latitude": 34.4548567,
   "Longitude": -114.2911031,
   "Website": "http://www.havasucrossfit.com/"
 },
 {
   "Name": "CrossFit EaDo",
   "Address": "2955 Gulf Fwy Houston US 77003 ",
   "Latitude": 29.7403512,
   "Longitude": -95.3531503,
   "Website": "http://www.crossfiteado.com/"
 },
 {
   "Name": "CrossFit The Point",
   "Address": "974 W 14420 S Suite #5 Bluffdale US 84065 ",
   "Latitude": 40.4818161,
   "Longitude": -111.9403254,
   "Website": "http://crossfitthepoint.com/"
 },
 {
   "Name": "Battle CrossFit",
   "Address": "2008 Dover Road, Unit 2 Epsom US 3234 ",
   "Latitude": 43.2302882,
   "Longitude": -71.3700372,
   "Website": "http://battlecrossfit.com/"
 },
 {
   "Name": "Tekton CrossFit",
   "Address": "5914 South 350 West Murray US 84107 ",
   "Latitude": 40.6426408,
   "Longitude": -111.8998536,
   "Website": "http://www.tektoncrossfit.com/"
 },
 {
   "Name": "CrossFit Ohana",
   "Address": "1299 West Laurel Avenue Lompoc US 93436 ",
   "Latitude": 34.645398,
   "Longitude": -120.472634,
   "Website": "http://crossfit-ohana.com/"
 },
 {
   "Name": "CrossFit Arx",
   "Address": "1301 North Industrial Way Toms River US 8755 ",
   "Latitude": 39.9896026,
   "Longitude": -74.2613715,
   "Website": "http://www.crossfitarx.com/"
 },
 {
   "Name": "CrossFit Leicester",
   "Address": "Vernon Road / 120 Leicester GB LE2 8GB ",
   "Latitude": 52.6074723,
   "Longitude": -1.140146,
   "Website": "http://leicestercrossfit.co.uk/"
 },
 {
   "Name": "Overland Park CrossFit",
   "Address": "8303 West 126th St. Suite B Overland Park US 66213 ",
   "Latitude": 38.8994561,
   "Longitude": -94.6829639,
   "Website": "http://overlandparkcrossfit.com/"
 },
 {
   "Name": "CrossFit James Island",
   "Address": "1750 Signal Point Road #260 Charleston US 29412 ",
   "Latitude": 32.7103505,
   "Longitude": -79.9670931,
   "Website": "http://www.crossfitjamesisland.com/"
 },
 {
   "Name": "Anderson River CrossFit",
   "Address": "19859 Hirsch Ct., Suite C Anderson US 96007 ",
   "Latitude": 40.4666757,
   "Longitude": -122.3169899,
   "Website": "http://andersonrivercrossfit.com/"
 },
 {
   "Name": "Iron Bridge CrossFit",
   "Address": "1935 Belgrade Ave, Charleston Charleston US 29407 ",
   "Latitude": 32.7945306,
   "Longitude": -80.0238869,
   "Website": "http://www.ironbridgecrossfit.com"
 },
 {
   "Name": "CrossFit Modena",
   "Address": "Via dell'Artigianato 38 Modena IT 41122 ",
   "Latitude": 44.6389987,
   "Longitude": 10.9723783,
   "Website": "http://www.crossfitmodena.it/"
 },
 {
   "Name": "San Angelo CrossFit",
   "Address": "133 East Concho Avenue San Angelo US 76903 ",
   "Latitude": 31.4606987,
   "Longitude": -100.4326392,
   "Website": "http://www.sanangelocrossfit.com/"
 },
 {
   "Name": "CrossFit X2",
   "Address": "2410 NE Twin Knolls Drive Bend US 97701 ",
   "Latitude": 44.0536186,
   "Longitude": -121.2680756,
   "Website": "http://xcelfitnessbend.com"
 },
 {
   "Name": "CrossFit Bauru",
   "Address": "R. Marília, 495 - Jardim Estoril 5 Bauru BR 17017-510 ",
   "Latitude": -22.3491236,
   "Longitude": -49.0647496,
   "Website": "http://www.crossfitbauru.com.br"
 },
 {
   "Name": "CrossFit Schenectady",
   "Address": "296 Morris Road Schenectady US 12303 ",
   "Latitude": 42.7434138,
   "Longitude": -73.9021327,
   "Website": "http://www.crossfitschenectady.com/"
 },
 {
   "Name": "CrossFit Liger",
   "Address": "583 105th Ave North, Unit 7 Royal Palm Beach US 33411 ",
   "Latitude": 26.6877348,
   "Longitude": -80.2099879,
   "Website": "http://crossfitliger.com/"
 },
 {
   "Name": "Frontline CrossFit",
   "Address": "4723 Concord Pike Wilmington US 19803 ",
   "Latitude": 39.8188167,
   "Longitude": -75.5461387,
   "Website": "http://www.frontlinecf.com/"
 },
 {
   "Name": "Carbon Method CrossFit",
   "Address": "101 Mt Eden Road, Mt Eden Auckland NZ 1024 ",
   "Latitude": -36.8684163,
   "Longitude": 174.7604064,
   "Website": "https://www.carbonmethodcrossfit.co.nz/"
 },
 {
   "Name": "CrossFit Boss",
   "Address": "Unit 3, 687 Old Cleveland Road East Brisbane AU 4160 ",
   "Latitude": -27.5095176,
   "Longitude": 153.2372452,
   "Website": "http://chaalkbox.com.au/classes/crossfitboss/"
 },
 {
   "Name": "CrossFit Wylie",
   "Address": "120 Security Court Wylie US 75098 ",
   "Latitude": 33.0095316,
   "Longitude": -96.577335,
   "Website": "http://www.crossfitwylie.com"
 },
 {
   "Name": "CrossFit Dresden",
   "Address": "Altplauen 15 Dresden DE 1187 ",
   "Latitude": 51.029709,
   "Longitude": 13.703654,
   "Website": "http://crossfitdresden.com/"
 },
 {
   "Name": "CrossFit Blackburn",
   "Address": "18 Apollo Court Blackburn AU 3130 ",
   "Latitude": -37.8210858,
   "Longitude": 145.1619878,
   "Website": "http://crossfitblackburn.com.au/"
 },
 {
   "Name": "CrossFit Kerava",
   "Address": "Kumitehtaankatu 5 Kerava FI 4260 ",
   "Latitude": 60.3818971,
   "Longitude": 25.1007101,
   "Website": "http://crossfitkerava.com/"
 },
 {
   "Name": "CrossFit Wash Park",
   "Address": "1200 West Evans Ave Denver US 80223 ",
   "Latitude": 39.6782259,
   "Longitude": -105.0021876,
   "Website": "http://www.crossfitwashpark.com/"
 },
 {
   "Name": "Sheepdog CrossFit",
   "Address": "110-1320 Kingsway Ave. Port Coquitlam CA V3C 6P4 ",
   "Latitude": 49.2468192,
   "Longitude": -122.7498262,
   "Website": "http://sheepdogcrossfit.com/"
 },
 {
   "Name": "CrossFit TPA",
   "Address": "129 McCarrell Lane, Suite 105 Zelienople US 16063 ",
   "Latitude": 40.760499,
   "Longitude": -80.112426,
   "Website": "http://www.crossfittpa.com/"
 },
 {
   "Name": "CrossFit High Octane",
   "Address": "2164 Platinum Road, Ste C Apopka US 32703 ",
   "Latitude": 28.6439933,
   "Longitude": -81.4705169,
   "Website": "http://www.crossfithighoctane.com/"
 },
 {
   "Name": "CrossFit 189",
   "Address": "189 Magnesium Drive Crestmead Logan City AU 4132 ",
   "Latitude": -27.6772936,
   "Longitude": 153.0783713,
   "Website": "http://www.crossfit189.com.au/"
 },
 {
   "Name": "Hermes CrossFit",
   "Address": "281 W 2050 N Spanish Fork US 84660 ",
   "Latitude": 40.1308773,
   "Longitude": -111.6531235,
   "Website": "http://hermescrossfit.com/"
 },
 {
   "Name": "CrossFit Ferrum",
   "Address": "618 St. Rd. 13 N Suite 3 Saint Johns US 32259 ",
   "Latitude": 30.112685,
   "Longitude": -81.6267136,
   "Website": "http://www.crossfitferrum.com/"
 },
 {
   "Name": "Renewed Strength CrossFit",
   "Address": "709 Technology Circle Midland US 79703 ",
   "Latitude": 31.9895577,
   "Longitude": -102.148559,
   "Website": "http://renewedstrengthcrossfit.com/"
 },
 {
   "Name": "CrossFit Obodo",
   "Address": "Unit C2A Dosco Industrial Estate, South Douglas Road Cork IE  ",
   "Latitude": 51.8855917,
   "Longitude": -8.4600208,
   "Website": "http://www.obodo.ie/"
 },
 {
   "Name": "Crescent City CrossFit",
   "Address": "841 Gretna Blvd Gretna US 70053 ",
   "Latitude": 29.8962896,
   "Longitude": -90.050135,
   "Website": "http://crescentcitycf.com/"
 },
 {
   "Name": "CrossFit Brutality",
   "Address": "280 Shrewsbury St. Boylston US 1505 ",
   "Latitude": 42.3284896,
   "Longitude": -71.7239172,
   "Website": "http://www.crossfitbrutality.com/"
 },
 {
   "Name": "CrossFit Rage",
   "Address": "4440 Township Line Rd Skippack US 19474 ",
   "Latitude": 40.2346791,
   "Longitude": -75.4014844,
   "Website": "http://cfrage.com/"
 },
 {
   "Name": "KOR CrossFit",
   "Address": "SEPS 712/912 Brasília BR 70876-540 ",
   "Latitude": -15.814897,
   "Longitude": -47.9164118,
   "Website": "http://www.korcrossfit.com.br/"
 },
 {
   "Name": "CrossFit Wichita",
   "Address": "535 S. St. Francis St. Wichita US 67202 ",
   "Latitude": 37.680134,
   "Longitude": -97.3319579,
   "Website": "http://www.crossfitwichita.com"
 },
 {
   "Name": "CrossFit Kennett Square",
   "Address": "529 Rosedale Road, Ste 101 Kennett Square US 19348 ",
   "Latitude": 39.8441123,
   "Longitude": -75.7005301,
   "Website": "http://www.crossfitkennettsquare.com/"
 },
 {
   "Name": "Sarum CrossFit",
   "Address": "Unit 11-12, Sarum Business Park Salisbury GB SP4 6FB ",
   "Latitude": 35.6709727,
   "Longitude": -80.4742261,
   "Website": "http://www.sarumcrossfit.co.uk/"
 },
 {
   "Name": "CrossFit Citrus Park",
   "Address": "7615 Gunn Hwy Tampa US 33625 ",
   "Latitude": 28.0784818,
   "Longitude": -82.5704818,
   "Website": "http://crossfitcitruspark.com/"
 },
 {
   "Name": "Black Fin CrossFit",
   "Address": "3600 Peoria Rd #202 Orange Park US 32065 ",
   "Latitude": 30.1295102,
   "Longitude": -81.7735758,
   "Website": "http://www.blackfincrossfit.com/"
 },
 {
   "Name": "CrossFit Dynamo",
   "Address": "6020 Parkway North, Suite 1700 Cumming US 30040 ",
   "Latitude": 34.1662878,
   "Longitude": -84.1799852,
   "Website": "http://crossfitdynamo.com/"
 },
 {
   "Name": "CrossFit Jungle Gym",
   "Address": "4 Crossroads Drive #110 Hamilton US 8691 ",
   "Latitude": 40.2033325,
   "Longitude": -74.6580651,
   "Website": "http://crossfitjunglegym.com/"
 },
 {
   "Name": "Solidarity CrossFit",
   "Address": "770 Harris St, Suite 102 Charlottesville US 22903 ",
   "Latitude": 38.0365545,
   "Longitude": -78.4832446,
   "Website": "http://solidaritycrossfit.com/"
 },
 {
   "Name": "CrossFit Grizzly",
   "Address": "1507 N Double B St Palmer US 99645 ",
   "Latitude": 61.5972,
   "Longitude": -149.2681172,
   "Website": "http://www.crossfitgrizzly.com"
 },
 {
   "Name": "CrossFit Waipio",
   "Address": "94-1388 Moaniani Street, Suite 102 Waipahu US 96797 ",
   "Latitude": 21.4219858,
   "Longitude": -157.9959934,
   "Website": "https://www.crossfitwaipio.com/"
 },
 {
   "Name": "CrossFit Taurus",
   "Address": "143 Maui Street Pukete Hamilton NZ 3200 ",
   "Latitude": -37.7294244,
   "Longitude": 175.220238,
   "Website": "http://www.crossfittaurus.com/"
 },
 {
   "Name": "CrossFit Fort Worth East",
   "Address": "1801 Airport Freeway Bedford US 76021 ",
   "Latitude": 32.8379476,
   "Longitude": -97.1390264,
   "Website": "https://www.crossfitfortwortheast.com"
 },
 {
   "Name": "CrossFit 925",
   "Address": "21216 Gathering Oak San Antonio US 78260 ",
   "Latitude": 29.6401094,
   "Longitude": -98.5160222,
   "Website": "http://www.crossfit925.com/"
 },
 {
   "Name": "CrossFit Louvre",
   "Address": "31 Avenue de l'Opéra Paris FR 75001 ",
   "Latitude": 48.8675202,
   "Longitude": 2.3333363,
   "Website": "http://www.reebokcrossfitlouvre.com/"
 },
 {
   "Name": "CrossFit Vault",
   "Address": "224 Queen St Melbourne AU 3000 ",
   "Latitude": -37.8132921,
   "Longitude": 144.9601354,
   "Website": "http://vault-performance.com/crossfit224/"
 },
 {
   "Name": "CrossFit MouseTrap",
   "Address": "8480 Palm Parkway Orlando US 32836 ",
   "Latitude": 28.385118,
   "Longitude": -81.4995858,
   "Website": "http://www.crossfitmousetrap.com/"
 },
 {
   "Name": "CrossFit Ruston",
   "Address": "1311 Ida Alley Ruston US 71270 ",
   "Latitude": 32.5424663,
   "Longitude": -92.6347362,
   "Website": "http://crossfitruston.com/"
 },
 {
   "Name": "CrossFit Armada",
   "Address": "6009 Cottonwood Pearland US 77584 ",
   "Latitude": 29.536273,
   "Longitude": -95.3135988,
   "Website": "http://www.crossfitarmada.com/"
 },
 {
   "Name": "CrossFit Countdown",
   "Address": "2409 Carter Ave Ashland US 41101 ",
   "Latitude": 38.4726729,
   "Longitude": -82.6296734,
   "Website": "http://crossfitcountdown.com/"
 },
 {
   "Name": "CrossFit Manvel",
   "Address": "7618 Bissel Road Manvel US 77578 ",
   "Latitude": 29.4609182,
   "Longitude": -95.3501585,
   "Website": "http://www.crossfitmanvel.com/"
 },
 {
   "Name": "Charge CrossFit",
   "Address": "2 Goldsmith Grove Northcote AU 3070 ",
   "Latitude": -37.7672412,
   "Longitude": 144.9855803,
   "Website": "http://www.chargecrossfit.com/"
 },
 {
   "Name": "CrossFit ValleyView",
   "Address": "1220 E Street, Suite F Los Banos US 93635 ",
   "Latitude": 37.063271,
   "Longitude": -120.844363,
   "Website": "http://www.crossfitvalleyview.com/"
 },
 {
   "Name": "CrossFit Success",
   "Address": "5819 Rendon Bloodworth Rd Fort Worth US 76140 ",
   "Latitude": 32.577453,
   "Longitude": -97.2346316,
   "Website": "http://www.crossfitsuccess.com/"
 },
 {
   "Name": "Scott Street CrossFit",
   "Address": "678 Scott Street Memphis US 38112 ",
   "Latitude": 35.1506892,
   "Longitude": -89.9667133,
   "Website": "https://www.s2fperformancelab.com/pricing"
 },
 {
   "Name": "S & S CrossFit",
   "Address": "271 A FM 306 New Braunfels US 78130 ",
   "Latitude": 29.7315083,
   "Longitude": -98.0817688,
   "Website": "http://www.s-scrossfit.com/"
 },
 {
   "Name": "Reebok CrossFit BCN",
   "Address": "C/ Ribes 25 Barcelona ES 8013 ",
   "Latitude": 41.3946404,
   "Longitude": 2.1816349,
   "Website": "http://www.reebokcrossfitbcn.com"
 },
 {
   "Name": "CrossFit Thumbs Up",
   "Address": "6818 S. Manhattan Ave Tampa US 33616 ",
   "Latitude": 27.8674958,
   "Longitude": -82.5179978,
   "Website": "http://crossfitthumbsup.com/"
 },
 {
   "Name": "CrossFit Meda",
   "Address": "Via Consorziale dei Boschi, 5 Meda IT 20821 ",
   "Latitude": 45.6572115,
   "Longitude": 9.1655566,
   "Website": "http://www.crossfitmeda.it/"
 },
 {
   "Name": "CrossFit Viera",
   "Address": "5565 Schenck Ave. unit 7 Rockledge US 32955 ",
   "Latitude": 28.2652736,
   "Longitude": -80.6914564,
   "Website": "http://www.crossfitviera.com/"
 },
 {
   "Name": "CrossFit Wichita Falls",
   "Address": "6305 Southwest Parkway Wichita Falls US 76310 ",
   "Latitude": 33.8588368,
   "Longitude": -98.5955302,
   "Website": "http://www.crossfitwichitafalls.net/"
 },
 {
   "Name": "CrossFit Lapeer",
   "Address": "865 Whitney Drive Lapeer US 48446 ",
   "Latitude": 43.0395449,
   "Longitude": -83.3070089,
   "Website": "https://www.lapeercrossfit.com/"
 },
 {
   "Name": "CrossFit Horsepower",
   "Address": "11559 Ventura Blvd. Studio City US 91604 ",
   "Latitude": 34.1402573,
   "Longitude": -118.3839043,
   "Website": "http://www.crossfithorsepower.com/"
 },
 {
   "Name": "CrossFit Earned",
   "Address": "26 Columbia Circle, Unit B Merrimack US 3054 ",
   "Latitude": 42.8522484,
   "Longitude": -71.4938599,
   "Website": "http://crossfitearned.com/"
 },
 {
   "Name": "CrossFit Hillerod",
   "Address": "Milnersvej 39 Hillerød DK 3400 ",
   "Latitude": 55.9221203,
   "Longitude": 12.3000866,
   "Website": "http://www.crossfithillerod.dk/"
 },
 {
   "Name": "CrossFit Desire North",
   "Address": "35 Frederick St. Northgate AU 4013 ",
   "Latitude": -27.3868145,
   "Longitude": 153.0731269,
   "Website": "http://crossfitdesire.com.au/"
 },
 {
   "Name": "North Rim CrossFit",
   "Address": "2954 State Highway 32, Suite 900 Chico US 95973 ",
   "Latitude": 39.7475928,
   "Longitude": -121.8935259,
   "Website": "http://www.northrimcrossfit.com/"
 },
 {
   "Name": "B-FIT CrossFit",
   "Address": "2202 Locust Street St. Joseph US 64501 ",
   "Latitude": 39.7608956,
   "Longitude": -94.8334416,
   "Website": "http://bfitinfo.com/"
 },
 {
   "Name": "CrossFit St-Jean",
   "Address": "353 Adrien-Fontaine Saint-Jean-sur-Richelieu CA J2X5M5 ",
   "Latitude": 45.3210077,
   "Longitude": -73.2299363,
   "Website": "http://cfstjean.com/"
 },
 {
   "Name": "CrossFit Central Houston",
   "Address": "1308 North 1st Street Bellaire US 77401 ",
   "Latitude": 29.7232592,
   "Longitude": -95.4628004,
   "Website": "http://crossfitcentralhouston.com/"
 },
 {
   "Name": "CrossFit Salzburg",
   "Address": "Rottfeld 9a Salzburg AT 5020 ",
   "Latitude": 47.8356733,
   "Longitude": 12.9991961,
   "Website": "https://www.crossfitsalzburg.at/"
 },
 {
   "Name": "CrossFit IN Town",
   "Address": "Am Auwaldsee 75 Ingolstadt DE 85053 ",
   "Latitude": 48.7567378,
   "Longitude": 11.4603603,
   "Website": "http://www.crossfit-intown.de/"
 },
 {
   "Name": "CrossFit Ridge Ave",
   "Address": "3791 Main St. Philadelphia US 19128 ",
   "Latitude": 40.0180211,
   "Longitude": -75.2133099,
   "Website": "http://www.crossfitridgeave.com/"
 },
 {
   "Name": "Gjuteriet CrossFit",
   "Address": "Åkarevägen 18 Falkenberg SE 31132 ",
   "Latitude": 56.9056857,
   "Longitude": 12.4584264,
   "Website": "http://www.gjuterietcrossfit.se/"
 },
 {
   "Name": "CrossFit Mantra",
   "Address": "3301 East Royalton Road, Building D Broadview Heights US 44147 ",
   "Latitude": 41.314622,
   "Longitude": -81.6625326,
   "Website": "http://www.crossfitmantra.com/"
 },
 {
   "Name": "CrossFit 843",
   "Address": "18 Scott Way Bluffton US 29910 ",
   "Latitude": 32.2589082,
   "Longitude": -80.8638537,
   "Website": "http://www.crossfit843.com"
 },
 {
   "Name": "Kerrville CrossFit",
   "Address": "1337 Bandera Hwy Kerrville US 78028 ",
   "Latitude": 30.0310759,
   "Longitude": -99.1395187,
   "Website": "http://kerrville-crossfit.com/"
 },
 {
   "Name": "Crow River CrossFit",
   "Address": "600 East Babcock Blvd Delano US 55328 ",
   "Latitude": 45.0362826,
   "Longitude": -93.7802002,
   "Website": "http://crowrivercrossfit.com/"
 },
 {
   "Name": "CrossFit Amundson",
   "Address": "3703 Portola Drive Santa Cruz US 95060 ",
   "Latitude": 36.963698,
   "Longitude": -121.9682522,
   "Website": "http://crossfitamundson.com/"
 },
 {
   "Name": "Laendle CrossFit",
   "Address": "Schwefelbadstrase 2 Hohenems AT 6845 ",
   "Latitude": 47.3499016,
   "Longitude": 9.6743534,
   "Website": "http://www.laendlecrossfit.com/aktuell.php"
 },
 {
   "Name": "CrossFit Kasteddu",
   "Address": "via Dolcetta, 12 Cagliari IT 9122 ",
   "Latitude": 39.2423284,
   "Longitude": 9.0935389,
   "Website": "http://crossfitkasteddu.com/"
 },
 {
   "Name": "CrossFit Parramatta",
   "Address": "3/552 Church Street Parramatta AU 2151 ",
   "Latitude": -33.7984125,
   "Longitude": 151.0032525,
   "Website": "https://rushhour.net.au/crossfit-parramatta/"
 },
 {
   "Name": "CrossFit Waitakere",
   "Address": "36 Bruce McClaren road Henderson NZ 612 ",
   "Latitude": -36.8928461,
   "Longitude": 174.6299728,
   "Website": "http://www.crossfitwaitakere.co.nz/"
 },
 {
   "Name": "Calibrated CrossFit",
   "Address": "673 Wilmer Avenue Cincinnati US 45226 ",
   "Latitude": 39.1144573,
   "Longitude": -84.4181877,
   "Website": "http://www.calibratedtraining.com/"
 },
 {
   "Name": "CrossFit Philia",
   "Address": "2910 Stoner CT, Unit 8 North Liberty US 52317 ",
   "Latitude": 41.7506328,
   "Longitude": -91.6474577,
   "Website": "http://www.crossfitphilia.com/"
 },